[
    {
        "no": 6345,
        "region": "인천광역시 ",
        "name": "연안동주민센터",
        "operation": "운영",
        "addrnew": "인천광역시 중구 축항대로86번길 44",
        "addr": "인천광역시 중구 항동7가 86번길 44",
        "type": "주민센터",
        "size": "152.00",
        "capability": "38",
        "lat": "37.4532353",
        "lng": "126.6045169",
        "serialno": "281104",
        "year": "2023",
        "loccode": "2811052000"
    },
    {
        "no": 6346,
        "region": "인천광역시 ",
        "name": "연안동경로당",
        "operation": "운영",
        "addrnew": "인천광역시 중구 축항대로86번길 47",
        "addr": "인천광역시 중구 항동7가 86번길 47",
        "type": "노인시설",
        "size": "165.00",
        "capability": "37",
        "lat": "37.4517247",
        "lng": "126.6074949",
        "serialno": "281105",
        "year": "2023",
        "loccode": "2811052000"
    },
    {
        "no": 6347,
        "region": "인천광역시 ",
        "name": "신한은행 인천중앙금융센터지점",
        "operation": "운영",
        "addrnew": "인천광역시 중구 신포로 28",
        "addr": "인천광역시 중구 신포동 27",
        "type": "금융기관",
        "size": "388.00",
        "capability": "149",
        "lat": "37.4713966",
        "lng": "126.6252799",
        "serialno": "2811000020",
        "year": "2023",
        "loccode": "2811053000"
    },
    {
        "no": 6348,
        "region": "인천광역시 ",
        "name": "신한은행 인천중구청지점",
        "operation": "운영",
        "addrnew": "인천광역시 중구 신포로27번길 80",
        "addr": "인천광역시 중구 관동1가 9-1",
        "type": "금융기관",
        "size": "104.00",
        "capability": "101",
        "lat": "37.4738393",
        "lng": "126.6212968",
        "serialno": "2811000019",
        "year": "2023",
        "loccode": "2811053000"
    },
    {
        "no": 6349,
        "region": "인천광역시 ",
        "name": "NH농협은행 신포지점",
        "operation": "운영",
        "addrnew": "인천광역시 중구 신포로 8",
        "addr": "인천광역시 중구 사동 3-1",
        "type": "금융기관",
        "size": "598.00",
        "capability": "230",
        "lat": "37.4698895",
        "lng": "126.6240193",
        "serialno": "2811000017",
        "year": "2023",
        "loccode": "2811053000"
    },
    {
        "no": 6350,
        "region": "인천광역시 ",
        "name": "중구청  민원지적과",
        "operation": "운영",
        "addrnew": "인천광역시 중구 신포로27번길 80\n(관동제1가)",
        "addr": "인천광역시 중구 관동1가 27번길 80",
        "type": "기타",
        "size": "120.00",
        "capability": "50",
        "lat": "37.473876",
        "lng": "126.6212985",
        "serialno": "281106",
        "year": "2023",
        "loccode": "2811053000"
    },
    {
        "no": 6351,
        "region": "인천광역시 ",
        "name": "신포동주민센터",
        "operation": "운영",
        "addrnew": "인천광역시 중구 제물량로 168",
        "addr": "인천광역시 중구 신생동 166",
        "type": "주민센터",
        "size": "141.00",
        "capability": "47",
        "lat": "37.4703662",
        "lng": "126.6251101",
        "serialno": "281107",
        "year": "2023",
        "loccode": "2811053000"
    },
    {
        "no": 6352,
        "region": "인천광역시 ",
        "name": "장애인복지관",
        "operation": "운영",
        "addrnew": "인천광역시 중구 매소홀로 10",
        "addr": "인천광역시 중구 신흥동3가 30-17",
        "type": "복지회관",
        "size": "1,956.00",
        "capability": "187",
        "lat": "37.4528498",
        "lng": "126.6280882",
        "serialno": "281111",
        "year": "2023",
        "loccode": "2811054000"
    },
    {
        "no": 6353,
        "region": "인천광역시 ",
        "name": "노인복지관",
        "operation": "운영",
        "addrnew": "인천광역시 중구 제물량로80번길 3-24 ",
        "addr": "인천광역시 중구 신흥동2가 23",
        "type": "복지회관",
        "size": "1,888.00",
        "capability": "250",
        "lat": "37.4678415",
        "lng": "126.6338512",
        "serialno": "281112",
        "year": "2023",
        "loccode": "2811054000"
    },
    {
        "no": 6354,
        "region": "인천광역시 ",
        "name": "도원동주민센터",
        "operation": "운영",
        "addrnew": "인천광역시 중구 도원로 42",
        "addr": "인천광역시 중구 도원동 42",
        "type": "주민센터",
        "size": "81.00",
        "capability": "27",
        "lat": "37.4680813",
        "lng": "126.637899",
        "serialno": "281113",
        "year": "2023",
        "loccode": "2811056000"
    },
    {
        "no": 6355,
        "region": "인천광역시 ",
        "name": "도원동경로당",
        "operation": "운영",
        "addrnew": "인천광역시 중구 도원서길 56 ",
        "addr": "인천광역시 중구 도원동 56",
        "type": "노인시설",
        "size": "283.00",
        "capability": "70",
        "lat": "37.4680773",
        "lng": "126.6368909",
        "serialno": "281114",
        "year": "2023",
        "loccode": "2811056000"
    },
    {
        "no": 6356,
        "region": "인천광역시 ",
        "name": "율목동주민센터",
        "operation": "운영",
        "addrnew": "인천광역시 중구 서해대로483번길3",
        "addr": "인천광역시 중구 유동 483번길 3",
        "type": "주민센터",
        "size": "183.00",
        "capability": "61",
        "lat": "37.4694114",
        "lng": "126.6357148",
        "serialno": "281115",
        "year": "2023",
        "loccode": "2811057000"
    },
    {
        "no": 6357,
        "region": "인천광역시 ",
        "name": "율목동경로당",
        "operation": "운영",
        "addrnew": "인천광역시 중구 서해대로497번길9",
        "addr": "인천광역시 중구 유동 497번길 9",
        "type": "노인시설",
        "size": "465.00",
        "capability": "116",
        "lat": "37.470246",
        "lng": "126.6359282",
        "serialno": "281116",
        "year": "2023",
        "loccode": "2811057000"
    },
    {
        "no": 6358,
        "region": "인천광역시 ",
        "name": "동인천동주민센터",
        "operation": "운영",
        "addrnew": "인천광역시 중구 참외전로72번길25",
        "addr": "인천광역시 중구 전동 72번길 25",
        "type": "주민센터",
        "size": "99.00",
        "capability": "33",
        "lat": "37.4768215",
        "lng": "126.6290191",
        "serialno": "281117",
        "year": "2023",
        "loccode": "2811058500"
    },
    {
        "no": 6359,
        "region": "인천광역시 ",
        "name": "인현동 경로당",
        "operation": "운영",
        "addrnew": "인천광역시 중구 참외전로 155",
        "addr": "인천광역시 중구 인현동 1-407",
        "type": "노인시설",
        "size": "241.00",
        "capability": "73",
        "lat": "37.4735316",
        "lng": "126.6341441",
        "serialno": "281119",
        "year": "2023",
        "loccode": "2811058500"
    },
    {
        "no": 6360,
        "region": "인천광역시 ",
        "name": "개항동주민센터",
        "operation": "운영",
        "addrnew": "인천광역시 중구 차이나타운로44번길13-2",
        "addr": "인천광역시 중구 북성동2가 44번길 13-2",
        "type": "주민센터",
        "size": "144.00",
        "capability": "48",
        "lat": "37.4752479",
        "lng": "126.6184789",
        "serialno": "281120",
        "year": "2023",
        "loccode": "2811060000"
    },
    {
        "no": 6361,
        "region": "인천광역시 ",
        "name": "월미경로당",
        "operation": "운영",
        "addrnew": "인천광역시 중구 반달로6번길4-1",
        "addr": "인천광역시 중구 북성동1가 6번길 4-1",
        "type": "노인시설",
        "size": "119.00",
        "capability": "20",
        "lat": "37.4758879",
        "lng": "126.6003089",
        "serialno": "281121",
        "year": "2023",
        "loccode": "2811060000"
    },
    {
        "no": 6362,
        "region": "인천광역시 ",
        "name": "라이온스 경로당",
        "operation": "운영",
        "addrnew": "인천광역시 중구 월미로 48",
        "addr": "인천광역시 중구 북성동1가 4-77",
        "type": "노인시설",
        "size": "99.00",
        "capability": "30",
        "lat": "37.478214",
        "lng": "126.6147529",
        "serialno": "281122",
        "year": "2023",
        "loccode": "2811060000"
    },
    {
        "no": 6363,
        "region": "인천광역시 ",
        "name": "개항동어울림터",
        "operation": "운영",
        "addrnew": "인천광역시 중구 참외전로37번길5",
        "addr": "인천광역시 중구 송월동1가 37번길 5",
        "type": "기타",
        "size": "174.00",
        "capability": "58",
        "lat": "37.479927",
        "lng": "126.624185",
        "serialno": "281123",
        "year": "2023",
        "loccode": "2811061000"
    },
    {
        "no": 6364,
        "region": "인천광역시 ",
        "name": "송월동경로당",
        "operation": "운영",
        "addrnew": "인천광역시 중구 송월로1-16",
        "addr": "인천광역시 중구 송월동1가 1-16",
        "type": "노인시설",
        "size": "91.00",
        "capability": "50",
        "lat": "37.479457",
        "lng": "126.624103",
        "serialno": "281124",
        "year": "2023",
        "loccode": "2811061000"
    },
    {
        "no": 6365,
        "region": "인천광역시 ",
        "name": "영종동주민센터",
        "operation": "운영",
        "addrnew": "인천광역시 중구 운남서로 100",
        "addr": "인천광역시 중구 운남동 167번길 16",
        "type": "주민센터",
        "size": "3,215.00",
        "capability": "800",
        "lat": "37.493955",
        "lng": "126.531359",
        "serialno": "281125",
        "year": "2023",
        "loccode": "2811062000"
    },
    {
        "no": 6366,
        "region": "인천광역시 ",
        "name": "영종1동 행정복지센터",
        "operation": "운영",
        "addrnew": "인천광역시 중구 하늘달빛로 120",
        "addr": "인천광역시 중구 중산동 1878-9",
        "type": "주민센터",
        "size": "32.00",
        "capability": "10",
        "lat": "37.488651",
        "lng": "126.554637",
        "serialno": "281129",
        "year": "2023",
        "loccode": "2811062200"
    },
    {
        "no": 6367,
        "region": "인천광역시 ",
        "name": "신한은행 인천국제공항지점",
        "operation": "운영",
        "addrnew": "인천광역시 중구 공항로 187",
        "addr": "인천광역시 중구 운서동 2851",
        "type": "금융기관",
        "size": "1,794.00",
        "capability": "690",
        "lat": "37.4478595",
        "lng": "126.4524848",
        "serialno": "2811000018",
        "year": "2023",
        "loccode": "2811062800"
    },
    {
        "no": 6368,
        "region": "인천광역시 ",
        "name": "운서동주민센터",
        "operation": "운영",
        "addrnew": "인천광역시 중구 흰바위로27번길 10",
        "addr": "인천광역시 중구 운서동 2792-3",
        "type": "주민센터",
        "size": "34.00",
        "capability": "10",
        "lat": "37.4933594",
        "lng": "126.4883415",
        "serialno": "281126",
        "year": "2023",
        "loccode": "2811062000"
    },
    {
        "no": 6369,
        "region": "인천광역시 ",
        "name": "금호1차경로당",
        "operation": "운영",
        "addrnew": "인천광역시 중구 신도시남로 15",
        "addr": "인천광역시 중구 운서동 2787-1",
        "type": "노인시설",
        "size": "97.00",
        "capability": "20",
        "lat": "37.4944368",
        "lng": "126.4858456",
        "serialno": "281127",
        "year": "2023",
        "loccode": "2811062000"
    },
    {
        "no": 6370,
        "region": "인천광역시 ",
        "name": "풍림1차경로당",
        "operation": "운영",
        "addrnew": "인천광역시 중구 영종대로27번길40\n(풍림 아이원아파트)",
        "addr": "인천광역시 중구 운서동 27번길 40",
        "type": "노인시설",
        "size": "145.00",
        "capability": "30",
        "lat": "37.4961239",
        "lng": "126.4818244",
        "serialno": "281128",
        "year": "2023",
        "loccode": "2811062000"
    },
    {
        "no": 6371,
        "region": "인천광역시 ",
        "name": "용유동주민센터",
        "operation": "운영",
        "addrnew": "인천광역시 중구 마시란로308-13 ",
        "addr": "인천광역시 중구 남북동 308-13",
        "type": "주민센터",
        "size": "300.00",
        "capability": "80",
        "lat": "37.444098",
        "lng": "126.402537",
        "serialno": "281131",
        "year": "2023",
        "loccode": "2811063000"
    },
    {
        "no": 6372,
        "region": "인천광역시 ",
        "name": "신설마을경로당",
        "operation": "운영",
        "addrnew": "인천광역시 중구 마시란로376-31 ",
        "addr": "인천광역시 중구 을왕동 376-31",
        "type": "노인시설",
        "size": "63.00",
        "capability": "15",
        "lat": "37.447316",
        "lng": "126.396039",
        "serialno": "281132",
        "year": "2023",
        "loccode": "2811063000"
    },
    {
        "no": 6373,
        "region": "인천광역시 ",
        "name": "화도진새마을금고 만석지점",
        "operation": "운영",
        "addrnew": "인천광역시 동구 제물량로 397",
        "addr": "인천광역시 동구 만석동 15-3",
        "type": "금융기관",
        "size": "60.00",
        "capability": "5",
        "lat": "37.4838444",
        "lng": "126.6259189",
        "serialno": "2814053",
        "year": "2023",
        "loccode": "2814051000"
    },
    {
        "no": 6374,
        "region": "인천광역시 ",
        "name": "만석동 제1경로당",
        "operation": "운영",
        "addrnew": "인천광역시 동구 보세로 20",
        "addr": "인천광역시 동구 만석동 4-3",
        "type": "노인시설",
        "size": "99.00",
        "capability": "24",
        "lat": "37.4878978",
        "lng": "126.6214629",
        "serialno": "28140002",
        "year": "2023",
        "loccode": "2814051000"
    },
    {
        "no": 6375,
        "region": "인천광역시 ",
        "name": "만석동 제2경로당",
        "operation": "운영",
        "addrnew": "인천광역시 동구 어촌로5번길 3-3 ",
        "addr": "인천광역시 동구 만석동 46-9",
        "type": "노인시설",
        "size": "106.00",
        "capability": "26",
        "lat": "37.481844",
        "lng": "126.6210607",
        "serialno": "28140003",
        "year": "2023",
        "loccode": "2814051000"
    },
    {
        "no": 6376,
        "region": "인천광역시 ",
        "name": "만석비치타운경로당",
        "operation": "운영",
        "addrnew": "인천광역시 동구 어촌로 22-6 ",
        "addr": "인천광역시 동구 만석동 122",
        "type": "노인시설",
        "size": "142.00",
        "capability": "35",
        "lat": "37.484084",
        "lng": "126.61988",
        "serialno": "28140004",
        "year": "2023",
        "loccode": "2814051000"
    },
    {
        "no": 6377,
        "region": "인천광역시 ",
        "name": "만석동 제3경로당",
        "operation": "운영",
        "addrnew": "인천광역시 동구  인중로  377   (만석동)",
        "addr": "인천광역시 동구 만석동 43-235",
        "type": "노인시설",
        "size": "52.00",
        "capability": "13",
        "lat": "37.48305",
        "lng": "126.617705",
        "serialno": "28140005",
        "year": "2023",
        "loccode": "2814051000"
    },
    {
        "no": 6378,
        "region": "인천광역시 ",
        "name": "만석동 행정복지센터",
        "operation": "운영",
        "addrnew": "인천광역시 동구 석수로 96",
        "addr": "인천광역시 동구 만석동 18-4",
        "type": "주민센터",
        "size": "500.00",
        "capability": "15",
        "lat": "37.483258",
        "lng": "126.625571",
        "serialno": "28140006",
        "year": "2023",
        "loccode": "2814051000"
    },
    {
        "no": 6379,
        "region": "인천광역시 ",
        "name": "괭이부리 경로당",
        "operation": "운영",
        "addrnew": "인천광역시 동구 화도진로 170",
        "addr": "인천광역시 동구 만석동 9-599",
        "type": "노인시설",
        "size": "184.00",
        "capability": "46",
        "lat": "37.4851018",
        "lng": "126.6243578",
        "serialno": "28140007",
        "year": "2023",
        "loccode": "2814051000"
    },
    {
        "no": 6380,
        "region": "인천광역시 ",
        "name": "평화새마을금고 화수지점",
        "operation": "운영",
        "addrnew": "인천광역시 동구 화도진로 102-1 ",
        "addr": "인천광역시 동구 화수동 286-5",
        "type": "금융기관",
        "size": "39.00",
        "capability": "2",
        "lat": "37.4803917",
        "lng": "126.6291801",
        "serialno": "2814055",
        "year": "2023",
        "loccode": "2814052500"
    },
    {
        "no": 6381,
        "region": "인천광역시 ",
        "name": "평화새마을금고 본점",
        "operation": "운영",
        "addrnew": "인천광역시 동구 화도진로 70",
        "addr": "인천광역시 동구 화평동 407-1",
        "type": "금융기관",
        "size": "49.00",
        "capability": "3",
        "lat": "37.4783128",
        "lng": "126.6317278",
        "serialno": "2814054",
        "year": "2023",
        "loccode": "2814052500"
    },
    {
        "no": 6382,
        "region": "인천광역시 ",
        "name": "화수1.화평동 행정복지센터",
        "operation": "운영",
        "addrnew": "인천광역시 동구 화도로 41",
        "addr": "인천광역시 동구 화수동 236",
        "type": "주민센터",
        "size": "222.00",
        "capability": "50",
        "lat": "37.4815356",
        "lng": "126.6299694",
        "serialno": "28140008",
        "year": "2023",
        "loccode": "2814052500"
    },
    {
        "no": 6383,
        "region": "인천광역시 ",
        "name": "영풍아파트 경로당",
        "operation": "운영",
        "addrnew": "인천광역시 동구 화도진로 132",
        "addr": "인천광역시 동구 화수동 79-4",
        "type": "노인시설",
        "size": "121.00",
        "capability": "30",
        "lat": "37.4827399",
        "lng": "126.6279554",
        "serialno": "28140009",
        "year": "2023",
        "loccode": "2814052500"
    },
    {
        "no": 6384,
        "region": "인천광역시 ",
        "name": "화도진그린빌아파트 경로당",
        "operation": "운영",
        "addrnew": "인천광역시 동구 화도진로 109",
        "addr": "인천광역시 동구 화수동 321",
        "type": "노인시설",
        "size": "86.00",
        "capability": "21",
        "lat": "37.480633",
        "lng": "126.628332",
        "serialno": "28140010",
        "year": "2023",
        "loccode": "2814052500"
    },
    {
        "no": 6385,
        "region": "인천광역시 ",
        "name": "화수1동 경로당",
        "operation": "운영",
        "addrnew": "인천광역시 동구 화도진로 120",
        "addr": "인천광역시 동구 화수동 140-61",
        "type": "노인시설",
        "size": "198.00",
        "capability": "49",
        "lat": "37.4818031",
        "lng": "126.6280332",
        "serialno": "28140011",
        "year": "2023",
        "loccode": "2814052500"
    },
    {
        "no": 6386,
        "region": "인천광역시 ",
        "name": "화평동 경로당",
        "operation": "운영",
        "addrnew": "인천광역시 동구 화도진로68번길 8",
        "addr": "인천광역시 동구 화평동 57-1",
        "type": "노인시설",
        "size": "133.00",
        "capability": "33",
        "lat": "37.4783025",
        "lng": "126.6322848",
        "serialno": "28140012",
        "year": "2023",
        "loccode": "2814052500"
    },
    {
        "no": 6387,
        "region": "인천광역시 ",
        "name": "송화새마을금고 송현지점",
        "operation": "운영",
        "addrnew": "인천광역시 동구 화수로 18",
        "addr": "인천광역시 동구 송현동 66-26",
        "type": "금융기관",
        "size": "89.90",
        "capability": "5",
        "lat": "37.4811963",
        "lng": "126.635447",
        "serialno": "2814057",
        "year": "2023",
        "loccode": "2814053000"
    },
    {
        "no": 6388,
        "region": "인천광역시 ",
        "name": "송화새마을금고 본점",
        "operation": "운영",
        "addrnew": "인천광역시 동구 화수로69번길 12",
        "addr": "인천광역시 동구 화수동 37-86",
        "type": "금융기관",
        "size": "163.70",
        "capability": "6",
        "lat": "37.4840945",
        "lng": "126.6306921",
        "serialno": "2814056",
        "year": "2023",
        "loccode": "2814053000"
    },
    {
        "no": 6389,
        "region": "인천광역시 ",
        "name": "화수2동 행정복지센터",
        "operation": "운영",
        "addrnew": "인천광역시 동구 화수안로 42",
        "addr": "인천광역시 동구 화수동 37-146",
        "type": "주민센터",
        "size": "1,054.00",
        "capability": "50",
        "lat": "37.4844059",
        "lng": "126.6301756",
        "serialno": "28140013",
        "year": "2023",
        "loccode": "2814052500"
    },
    {
        "no": 6390,
        "region": "인천광역시 ",
        "name": "화수2동 경로당",
        "operation": "운영",
        "addrnew": "인천광역시 동구 화수로73번길 6",
        "addr": "인천광역시 동구 화수동 35-41",
        "type": "노인시설",
        "size": "150.00",
        "capability": "49",
        "lat": "37.4846005",
        "lng": "126.6306057",
        "serialno": "28140014",
        "year": "2023",
        "loccode": "2814052500"
    },
    {
        "no": 6391,
        "region": "인천광역시 ",
        "name": "미륭아파트 경로당",
        "operation": "운영",
        "addrnew": "인천광역시 동구 화수로 46",
        "addr": "인천광역시 동구 화수동 2-7",
        "type": "노인시설",
        "size": "125.00",
        "capability": "50",
        "lat": "37.4830291",
        "lng": "126.6331287",
        "serialno": "28140015",
        "year": "2023",
        "loccode": "2814053000"
    },
    {
        "no": 6392,
        "region": "인천광역시 ",
        "name": "동부아파트 경로당",
        "operation": "운영",
        "addrnew": "인천광역시 동구 화수로 38",
        "addr": "인천광역시 동구 송현동 66-26",
        "type": "노인시설",
        "size": "146.00",
        "capability": "100",
        "lat": "37.482129",
        "lng": "126.635428",
        "serialno": "28140016",
        "year": "2023",
        "loccode": "2814053000"
    },
    {
        "no": 6393,
        "region": "인천광역시 ",
        "name": "삼두1차아파트 경로당",
        "operation": "운영",
        "addrnew": "인천광역시 동구 수문통로 33",
        "addr": "인천광역시 동구 송현동 66-51",
        "type": "노인시설",
        "size": "56.00",
        "capability": "27",
        "lat": "37.479509",
        "lng": "126.633248",
        "serialno": "28140017",
        "year": "2023",
        "loccode": "2814053000"
    },
    {
        "no": 6394,
        "region": "인천광역시 ",
        "name": "삼두2차아파트 경로당",
        "operation": "운영",
        "addrnew": "인천광역시 동구 화수로 21",
        "addr": "인천광역시 동구 송현동 66-24",
        "type": "노인시설",
        "size": "66.00",
        "capability": "50",
        "lat": "37.480958",
        "lng": "126.634613",
        "serialno": "28140018",
        "year": "2023",
        "loccode": "2814053000"
    },
    {
        "no": 6395,
        "region": "인천광역시 ",
        "name": "화수부두 경로당",
        "operation": "운영",
        "addrnew": "인천광역시 동구 화수부두로35번길 8-1 ",
        "addr": "인천광역시 동구 화수동 7-202",
        "type": "노인시설",
        "size": "105.00",
        "capability": "47",
        "lat": "37.4881044",
        "lng": "126.6292403",
        "serialno": "28140019",
        "year": "2023",
        "loccode": "2814053000"
    },
    {
        "no": 6396,
        "region": "인천광역시 ",
        "name": "화도진새마을금고 본점",
        "operation": "운영",
        "addrnew": "인천광역시 동구 송현로 30",
        "addr": "인천광역시 동구 송현동 157",
        "type": "금융기관",
        "size": "175.00",
        "capability": "10",
        "lat": "37.4786313",
        "lng": "126.63566",
        "serialno": "2814052",
        "year": "2023",
        "loccode": "2814055500"
    },
    {
        "no": 6397,
        "region": "인천광역시 ",
        "name": "송현2동 경로당",
        "operation": "운영",
        "addrnew": "인천광역시 동구 송현로15번길 4-1 ",
        "addr": "인천광역시 동구 송현동 67-133",
        "type": "노인시설",
        "size": "113.00",
        "capability": "28",
        "lat": "37.4780148",
        "lng": "126.6342518",
        "serialno": "28140020",
        "year": "2023",
        "loccode": "2814053000"
    },
    {
        "no": 6398,
        "region": "인천광역시 ",
        "name": "송현1.2동 행정복지센터",
        "operation": "운영",
        "addrnew": "인천광역시 동구 수문통로 26",
        "addr": "인천광역시 동구 송현동 67-84",
        "type": "주민센터",
        "size": "266.00",
        "capability": "30",
        "lat": "37.4784485",
        "lng": "126.6333854",
        "serialno": "28140021",
        "year": "2023",
        "loccode": "2814055500"
    },
    {
        "no": 6399,
        "region": "인천광역시 ",
        "name": "신한은행 송현동지점",
        "operation": "운영",
        "addrnew": "인천광역시 동구 중봉대로 100",
        "addr": "인천광역시 동구 송현동 1-770",
        "type": "금융기관",
        "size": "10.00",
        "capability": "5",
        "lat": "37.4879001",
        "lng": "126.6473592",
        "serialno": "2814000068",
        "year": "2023",
        "loccode": "2814057000"
    },
    {
        "no": 6400,
        "region": "인천광역시 ",
        "name": "송현3동 행정복지센터",
        "operation": "운영",
        "addrnew": "인천광역시 동구 인중로 635-20 ",
        "addr": "인천광역시 동구 송현동 1-825",
        "type": "주민센터",
        "size": "45.00",
        "capability": "10",
        "lat": "37.4822461",
        "lng": "126.6426547",
        "serialno": "28140022",
        "year": "2023",
        "loccode": "2814057000"
    },
    {
        "no": 6401,
        "region": "인천광역시 ",
        "name": "송현아파트 경로당",
        "operation": "운영",
        "addrnew": "인천광역시 동구 인중로 621",
        "addr": "인천광역시 동구 송현동 1-57",
        "type": "노인시설",
        "size": "80.00",
        "capability": "50",
        "lat": "37.4822782",
        "lng": "126.6417924",
        "serialno": "28140023",
        "year": "2023",
        "loccode": "2814057000"
    },
    {
        "no": 6402,
        "region": "인천광역시 ",
        "name": "송현3동 경로당",
        "operation": "운영",
        "addrnew": "인천광역시 동구 솔빛로85번길 75-6 ",
        "addr": "인천광역시 동구 송현동 13-43",
        "type": "노인시설",
        "size": "80.00",
        "capability": "50",
        "lat": "37.4798332",
        "lng": "126.6432885",
        "serialno": "28140024",
        "year": "2023",
        "loccode": "2814057000"
    },
    {
        "no": 6403,
        "region": "인천광역시 ",
        "name": "송림1동 행정복지센터",
        "operation": "운영",
        "addrnew": "인천광역시 동구 송림로43번길 42",
        "addr": "인천광역시 동구 송림동 219-3",
        "type": "주민센터",
        "size": "115.00",
        "capability": "15",
        "lat": "37.4762787",
        "lng": "126.6401857",
        "serialno": "28140025",
        "year": "2023",
        "loccode": "2814058000"
    },
    {
        "no": 6404,
        "region": "인천광역시 ",
        "name": "송림1동 경로당",
        "operation": "운영",
        "addrnew": "인천광역시 동구  송림로43번길  40   (송림동)",
        "addr": "인천광역시 동구 송림동 192-3",
        "type": "노인시설",
        "size": "132.00",
        "capability": "33",
        "lat": "37.476109",
        "lng": "126.640003",
        "serialno": "28140026",
        "year": "2023",
        "loccode": "2814058000"
    },
    {
        "no": 6405,
        "region": "인천광역시 ",
        "name": "신한은행 인천동구청지점",
        "operation": "운영",
        "addrnew": "인천광역시 동구 금곡로 67",
        "addr": "인천광역시 동구 송림동 109-2",
        "type": "금융기관",
        "size": "7.50",
        "capability": "5",
        "lat": "37.4738057",
        "lng": "126.6432557",
        "serialno": "2814000067",
        "year": "2023",
        "loccode": "2814010700"
    },
    {
        "no": 6406,
        "region": "인천광역시 ",
        "name": "송림새마을금고 로타리지점",
        "operation": "운영",
        "addrnew": "인천광역시 동구 솔빛로91번길 7",
        "addr": "인천광역시 동구 송림동 55-22",
        "type": "금융기관",
        "size": "165.00",
        "capability": "6",
        "lat": "37.4764777",
        "lng": "126.6434206",
        "serialno": "2814059",
        "year": "2023",
        "loccode": "2814059000"
    },
    {
        "no": 6407,
        "region": "인천광역시 ",
        "name": "동구노인복지관",
        "operation": "운영",
        "addrnew": "인천광역시 동구 샛골로 177",
        "addr": "인천광역시 동구 송림동 124-48",
        "type": "복지회관",
        "size": "1,924.00",
        "capability": "481",
        "lat": "37.478332",
        "lng": "126.644496",
        "serialno": "28140027",
        "year": "2023",
        "loccode": "2814058000"
    },
    {
        "no": 6408,
        "region": "인천광역시 ",
        "name": "송림2동 경로당",
        "operation": "운영",
        "addrnew": "인천광역시 동구 솔빛로85번길 56",
        "addr": "인천광역시 동구 송림동 124-16",
        "type": "노인시설",
        "size": "219.00",
        "capability": "54",
        "lat": "37.478686",
        "lng": "126.6434936",
        "serialno": "28140028",
        "year": "2023",
        "loccode": "2814058000"
    },
    {
        "no": 6409,
        "region": "인천광역시 ",
        "name": "송림2동 행정복지센터",
        "operation": "운영",
        "addrnew": "인천광역시 동구 안송로6번길 5",
        "addr": "인천광역시 동구 송림동 56-77",
        "type": "주민센터",
        "size": "350.00",
        "capability": "100",
        "lat": "37.4758115",
        "lng": "126.6426604",
        "serialno": "28140029",
        "year": "2023",
        "loccode": "2814059000"
    },
    {
        "no": 6410,
        "region": "인천광역시 ",
        "name": "송림도서관",
        "operation": "운영",
        "addrnew": "인천광역시 동구 새천년로 72",
        "addr": "인천광역시 동구 송림동 342-1",
        "type": "기타",
        "size": "234.00",
        "capability": "20",
        "lat": "37.4747079",
        "lng": "126.6488135",
        "serialno": "2814000062",
        "year": "2023",
        "loccode": "2814060500"
    },
    {
        "no": 6411,
        "region": "인천광역시 ",
        "name": "희망새마을금고 금송지점",
        "operation": "운영",
        "addrnew": "인천광역시 동구 금곡로 93",
        "addr": "인천광역시 동구 송림동 67-5",
        "type": "금융기관",
        "size": "183.47",
        "capability": "10",
        "lat": "37.4740204",
        "lng": "126.6457083",
        "serialno": "2814062",
        "year": "2023",
        "loccode": "2814060500"
    },
    {
        "no": 6412,
        "region": "인천광역시 ",
        "name": "송림3동 경로당",
        "operation": "운영",
        "addrnew": "인천광역시 동구 동산로41번길 22",
        "addr": "인천광역시 동구 송림동 91-138",
        "type": "노인시설",
        "size": "110.00",
        "capability": "40",
        "lat": "37.4712084",
        "lng": "126.6472043",
        "serialno": "28140032",
        "year": "2023",
        "loccode": "2814058000"
    },
    {
        "no": 6413,
        "region": "인천광역시 ",
        "name": "송림5동 경로당",
        "operation": "운영",
        "addrnew": "인천광역시 동구 송림동 동산로  81   (송림동)",
        "addr": "인천광역시 동구 송림동 59-71",
        "type": "노인시설",
        "size": "99.00",
        "capability": "40",
        "lat": "37.474568",
        "lng": "126.645424",
        "serialno": "28140033",
        "year": "2023",
        "loccode": "2814060500"
    },
    {
        "no": 6414,
        "region": "인천광역시 ",
        "name": "송림3.5동 행정복지센터",
        "operation": "운영",
        "addrnew": "인천광역시 동구  새천년로  72   (송림동)",
        "addr": "인천광역시 동구 송림동 342-1",
        "type": "주민센터",
        "size": "234.00",
        "capability": "60",
        "lat": "37.474705",
        "lng": "126.648756",
        "serialno": "28140034",
        "year": "2023",
        "loccode": "2814060500"
    },
    {
        "no": 6415,
        "region": "인천광역시 ",
        "name": "진로아파트 경로당",
        "operation": "운영",
        "addrnew": "인천광역시 동구  동산로  21 ,  상가동 (송림동)",
        "addr": "인천광역시 동구 송림동 94-11 상가동",
        "type": "노인시설",
        "size": "80.00",
        "capability": "20",
        "lat": "37.470162",
        "lng": "126.649415",
        "serialno": "28140035",
        "year": "2023",
        "loccode": "2814060500"
    },
    {
        "no": 6416,
        "region": "인천광역시 ",
        "name": "송림새마을금고 본점",
        "operation": "운영",
        "addrnew": "인천광역시 동구 송림로162번길 10",
        "addr": "인천광역시 동구 송림동 346-1",
        "type": "금융기관",
        "size": "132.00",
        "capability": "5",
        "lat": "37.4774666",
        "lng": "126.6513523",
        "serialno": "2814058",
        "year": "2023",
        "loccode": "2814061000"
    },
    {
        "no": 6417,
        "region": "인천광역시 ",
        "name": "송림4동 행정복지센터",
        "operation": "운영",
        "addr": "인천광역시 동구 송림동 23-88",
        "type": "주민센터",
        "size": "63.00",
        "capability": "10",
        "lat": "37.4776444",
        "lng": "126.6517183",
        "serialno": "28140036",
        "year": "2023",
        "loccode": "2814061000"
    },
    {
        "no": 6418,
        "region": "인천광역시 ",
        "name": "송림휴먼시아아파트 경로당",
        "operation": "운영",
        "addrnew": "인천광역시 동구 송림동 송향로  25   (송림동)",
        "addr": "인천광역시 동구 송림동 341",
        "type": "노인시설",
        "size": "138.00",
        "capability": "60",
        "lat": "37.4803717",
        "lng": "126.6520753",
        "serialno": "28140037",
        "year": "2023",
        "loccode": "2814061000"
    },
    {
        "no": 6419,
        "region": "인천광역시 ",
        "name": "희망새마을금고 서흥지점",
        "operation": "운영",
        "addrnew": "인천광역시 동구 인중로680번길 8",
        "addr": "인천광역시 동구 송림동 32-142",
        "type": "금융기관",
        "size": "80.70",
        "capability": "5",
        "lat": "37.4797961",
        "lng": "126.6468177",
        "serialno": "2814061",
        "year": "2023",
        "loccode": "2814063000"
    },
    {
        "no": 6420,
        "region": "인천광역시 ",
        "name": "희망새마을금고 본점",
        "operation": "운영",
        "addrnew": "인천광역시 동구 송림로 99-2 ",
        "addr": "인천광역시 동구 송림동 50-17",
        "type": "금융기관",
        "size": "88.03",
        "capability": "5",
        "lat": "37.4764235",
        "lng": "126.6457619",
        "serialno": "2814060",
        "year": "2023",
        "loccode": "2814063000"
    },
    {
        "no": 6421,
        "region": "인천광역시 ",
        "name": "송림6동 제1경로당",
        "operation": "운영",
        "addrnew": "인천광역시 동구 육송로 55",
        "addr": "인천광역시 동구 송림동 32-7",
        "type": "노인시설",
        "size": "66.00",
        "capability": "30",
        "lat": "37.479444",
        "lng": "126.64797",
        "serialno": "28140038",
        "year": "2023",
        "loccode": "2814060500"
    },
    {
        "no": 6422,
        "region": "인천광역시 ",
        "name": "송림6동 행정복지센터",
        "operation": "운영",
        "addrnew": "인천광역시 동구 샛골로162번길 56",
        "addr": "인천광역시 동구 송림동 42-37",
        "type": "주민센터",
        "size": "541.00",
        "capability": "70",
        "lat": "37.4773675",
        "lng": "126.6479177",
        "serialno": "28140040",
        "year": "2023",
        "loccode": "2814063000"
    },
    {
        "no": 6423,
        "region": "인천광역시 ",
        "name": "송림6동 제2경로당",
        "operation": "운영",
        "addrnew": "인천광역시 동구 송미로23번길 18",
        "addr": "인천광역시 동구 송림동 11-53",
        "type": "노인시설",
        "size": "32.00",
        "capability": "15",
        "lat": "37.4826933",
        "lng": "126.6481805",
        "serialno": "28140041",
        "year": "2023",
        "loccode": "2814063000"
    },
    {
        "no": 6424,
        "region": "인천광역시 ",
        "name": "풍림아이원아파트 경로당",
        "operation": "운영",
        "addrnew": "인천광역시 동구 송미로 6",
        "addr": "인천광역시 동구 송림동 339",
        "type": "노인시설",
        "size": "165.00",
        "capability": "40",
        "lat": "37.480879",
        "lng": "126.6505006",
        "serialno": "28140042",
        "year": "2023",
        "loccode": "2814063000"
    },
    {
        "no": 6425,
        "region": "인천광역시 ",
        "name": "NH농협은행 송림동지점",
        "operation": "운영",
        "addrnew": "인천광역시 동구 송림로 98",
        "addr": "인천광역시 동구 송림동 60-1",
        "type": "금융기관",
        "size": "1,517.00",
        "capability": "20",
        "lat": "37.4759511",
        "lng": "126.6456084",
        "serialno": "28140043",
        "year": "2023",
        "loccode": "2814063000"
    },
    {
        "no": 6426,
        "region": "인천광역시 ",
        "name": "금창동 행정복지센터",
        "operation": "운영",
        "addrnew": "인천광역시 동구 금곡로36번길 16",
        "addr": "인천광역시 동구 금곡동 38-2",
        "type": "주민센터",
        "size": "296.00",
        "capability": "73",
        "lat": "37.4725142",
        "lng": "126.6397809",
        "serialno": "28140044",
        "year": "2023",
        "loccode": "2814063000"
    },
    {
        "no": 6427,
        "region": "인천광역시 ",
        "name": "금창동 경로당",
        "operation": "운영",
        "addrnew": "인천광역시 동구 금곡로66번길 8",
        "addr": "인천광역시 동구 금곡동 54-85",
        "type": "노인시설",
        "size": "136.00",
        "capability": "40",
        "lat": "37.4728753",
        "lng": "126.6426213",
        "serialno": "28140045",
        "year": "2023",
        "loccode": "2814064000"
    },
    {
        "no": 6428,
        "region": "인천광역시 ",
        "name": "하나은행 숭의동지점",
        "operation": "운영",
        "addrnew": "인천광역시 미추홀구 경인로 2",
        "addr": "인천광역시 미추홀구 숭의동 163-6",
        "type": "금융기관",
        "size": "563.54",
        "capability": "20",
        "lat": "37.4622288",
        "lng": "126.6435989",
        "serialno": "2817700093",
        "year": "2023",
        "loccode": "2817751000"
    },
    {
        "no": 6429,
        "region": "인천광역시 ",
        "name": "신한은행 미추홀구청지점",
        "operation": "운영",
        "addrnew": "인천광역시 미추홀구 독정이로 95",
        "addr": "인천광역시 미추홀구 숭의동 131-1",
        "type": "금융기관",
        "size": "97.44",
        "capability": "15",
        "lat": "37.4630686",
        "lng": "126.6509746",
        "serialno": "2817700085",
        "year": "2023",
        "loccode": "2817751000"
    },
    {
        "no": 6430,
        "region": "인천광역시 ",
        "name": "미추홀구청 종합민원실",
        "operation": "운영",
        "addrnew": "인천광역시 미추홀구 독정이로 95",
        "addr": "인천광역시 미추홀구 숭의동 131-2",
        "type": "기타",
        "size": "100.00",
        "capability": "30",
        "lat": "37.4629634",
        "lng": "126.6510171",
        "serialno": "28177002",
        "year": "2023",
        "loccode": "2817751000"
    },
    {
        "no": 6431,
        "region": "인천광역시 ",
        "name": "육각정경로당",
        "operation": "운영",
        "addrnew": "인천광역시 미추홀구 독정이로41번길 41-12 ",
        "addr": "인천광역시 미추홀구 숭의동 290-67",
        "type": "노인시설",
        "size": "116.00",
        "capability": "14",
        "lat": "37.4588018",
        "lng": "126.6512863",
        "serialno": "28177003",
        "year": "2023",
        "loccode": "2817052000"
    },
    {
        "no": 6432,
        "region": "인천광역시 ",
        "name": "숭의2동 행정복지센터",
        "operation": "운영",
        "addrnew": "인천광역시 미추홀구 경인로42번길 31",
        "addr": "인천광역시 미추홀구 숭의동 131-6",
        "type": "주민센터",
        "size": "30.00",
        "capability": "10",
        "lat": "37.4629087",
        "lng": "126.6486584",
        "serialno": "28177004",
        "year": "2023",
        "loccode": "2817751000"
    },
    {
        "no": 6433,
        "region": "인천광역시 ",
        "name": "숭의3동 분회경로당",
        "operation": "운영",
        "addrnew": "인천광역시 미추홀구 석정로126번길 12-38 ",
        "addr": "인천광역시 미추홀구 숭의동 83-9",
        "type": "노인시설",
        "size": "140.00",
        "capability": "17",
        "lat": "37.4681414",
        "lng": "126.6487644",
        "serialno": "28177006",
        "year": "2023",
        "loccode": "2817051000"
    },
    {
        "no": 6434,
        "region": "인천광역시 ",
        "name": "숭의1.3동 행정복지센터",
        "operation": "운영",
        "addrnew": "인천광역시 미추홀구 석정로92번길 21-17 ",
        "addr": "인천광역시 미추홀구 숭의동 85-1",
        "type": "주민센터",
        "size": "50.00",
        "capability": "15",
        "lat": "37.4672681",
        "lng": "126.6471621",
        "serialno": "28177007",
        "year": "2023",
        "loccode": "2817752000"
    },
    {
        "no": 6435,
        "region": "인천광역시 ",
        "name": "여의실경로당",
        "operation": "운영",
        "addrnew": "인천광역시 미추홀구 경인로78번길 14",
        "addr": "인천광역시 미추홀구 숭의동 72-30",
        "type": "노인시설",
        "size": "69.82",
        "capability": "50",
        "lat": "37.4649",
        "lng": "126.6516",
        "serialno": "2817700097",
        "year": "2023",
        "loccode": "2817753000"
    },
    {
        "no": 6436,
        "region": "인천광역시 ",
        "name": "숭의1동분회경로당",
        "operation": "운영",
        "addrnew": "인천광역시 미추홀구 경인로78번길 14",
        "addr": "인천광역시 미추홀구 숭의동 72-30",
        "type": "노인시설",
        "size": "151.00",
        "capability": "18",
        "lat": "37.4649356",
        "lng": "126.651648",
        "serialno": "28177008",
        "year": "2023",
        "loccode": "2817051000"
    },
    {
        "no": 6437,
        "region": "인천광역시 ",
        "name": "숭의4동분회경로당",
        "operation": "운영",
        "addrnew": "인천광역시 미추홀구 수봉로 59-1 ",
        "addr": "인천광역시 미추홀구 숭의동 14-4",
        "type": "노인시설",
        "size": "186.00",
        "capability": "22",
        "lat": "37.4612901",
        "lng": "126.6585363",
        "serialno": "28177009",
        "year": "2023",
        "loccode": "2817054000"
    },
    {
        "no": 6438,
        "region": "인천광역시 ",
        "name": "숭의4동 행정복지센터",
        "operation": "운영",
        "addrnew": "인천광역시 미추홀구 경인로156번길 32",
        "addr": "인천광역시 미추홀구 숭의동 2-218",
        "type": "주민센터",
        "size": "50.00",
        "capability": "15",
        "lat": "37.4648224",
        "lng": "126.6591416",
        "serialno": "28177010",
        "year": "2023",
        "loccode": "2817753000"
    },
    {
        "no": 6439,
        "region": "인천광역시 ",
        "name": "하나은행 인하대지점",
        "operation": "운영",
        "addrnew": "인천광역시 미추홀구 인하로 100",
        "addr": "인천광역시 미추홀구 용현동 253",
        "type": "금융기관",
        "size": "354.41",
        "capability": "15",
        "lat": "37.4494403",
        "lng": "126.6565158",
        "serialno": "2817700094",
        "year": "2023",
        "loccode": "2817754000"
    },
    {
        "no": 6440,
        "region": "인천광역시 ",
        "name": "수향경로당",
        "operation": "운영",
        "addrnew": "인천광역시 미추홀구 인주대로252번길 30",
        "addr": "인천광역시 미추홀구 용현동 76-17",
        "type": "노인시설",
        "size": "154.00",
        "capability": "18",
        "lat": "37.451858",
        "lng": "126.6636543",
        "serialno": "28177011",
        "year": "2023",
        "loccode": "2817055000"
    },
    {
        "no": 6441,
        "region": "인천광역시 ",
        "name": "용현4동 경로당",
        "operation": "운영",
        "addrnew": "인천광역시 미추홀구 한나루로477번길 88",
        "addr": "인천광역시 미추홀구 용현동 79-1",
        "type": "노인시설",
        "size": "84.00",
        "capability": "10",
        "lat": "37.4505688",
        "lng": "126.6624304",
        "serialno": "28177012",
        "year": "2023",
        "loccode": "2817055000"
    },
    {
        "no": 6442,
        "region": "인천광역시 ",
        "name": "남구노인문화센타",
        "operation": "운영",
        "addrnew": "인천광역시 미추홀구 인하로77번길 38",
        "addr": "인천광역시 미추홀구 용현동 181-5",
        "type": "기타",
        "size": "1,062.00",
        "capability": "126",
        "lat": "37.4527014",
        "lng": "126.657877",
        "serialno": "28177013",
        "year": "2023",
        "loccode": "2817055000"
    },
    {
        "no": 6443,
        "region": "인천광역시 ",
        "name": "용현1.4동 행정복지센터",
        "operation": "운영",
        "addrnew": "인천광역시 미추홀구 수봉남로18번길 68",
        "addr": "인천광역시 미추홀구 용현동 62-7",
        "type": "주민센터",
        "size": "100.00",
        "capability": "30",
        "lat": "37.456223",
        "lng": "126.659958",
        "serialno": "28177015",
        "year": "2023",
        "loccode": "2817754000"
    },
    {
        "no": 6444,
        "region": "인천광역시 ",
        "name": "용현2동 경로당",
        "operation": "운영",
        "addrnew": "인천광역시 미추홀구 아암대로29번길 53-39 ",
        "addr": "인천광역시 미추홀구 용현동 571-40",
        "type": "노인시설",
        "size": "88.00",
        "capability": "11",
        "lat": "37.457039",
        "lng": "126.6404219",
        "serialno": "28177014",
        "year": "2023",
        "loccode": "2817056000"
    },
    {
        "no": 6445,
        "region": "인천광역시 ",
        "name": "용현2동 행정복지센터",
        "operation": "운영",
        "addrnew": "인천광역시 미추홀구 낙섬중로 101",
        "addr": "인천광역시 미추홀구 용현동 568-83",
        "type": "주민센터",
        "size": "30.00",
        "capability": "10",
        "lat": "37.4565501",
        "lng": "126.6410828",
        "serialno": "28177016",
        "year": "2023",
        "loccode": "2817755000"
    },
    {
        "no": 6446,
        "region": "인천광역시 ",
        "name": "용현3동 경로당",
        "operation": "운영",
        "addrnew": "인천광역시 미추홀구 비룡길41번길 25",
        "addr": "인천광역시 미추홀구 용현동 159-6",
        "type": "노인시설",
        "size": "108.00",
        "capability": "13",
        "lat": "37.4533182",
        "lng": "126.6551258",
        "serialno": "28177017",
        "year": "2023",
        "loccode": "2817057000"
    },
    {
        "no": 6447,
        "region": "인천광역시 ",
        "name": "용정경로당",
        "operation": "운영",
        "addrnew": "인천광역시 미추홀구 인주대로153번길 22",
        "addr": "인천광역시 미추홀구 용현동 491-211",
        "type": "노인시설",
        "size": "73.00",
        "capability": "9",
        "lat": "37.4573658",
        "lng": "126.654179",
        "serialno": "28177018",
        "year": "2023",
        "loccode": "2817057000"
    },
    {
        "no": 6448,
        "region": "인천광역시 ",
        "name": "용현3동 행정복지센터",
        "operation": "운영",
        "addrnew": "인천광역시 미추홀구 인주대로 133",
        "addr": "인천광역시 미추홀구 용현동 453-92",
        "type": "주민센터",
        "size": "30.00",
        "capability": "10",
        "lat": "37.4566885",
        "lng": "126.651895",
        "serialno": "28177019",
        "year": "2023",
        "loccode": "2817756000"
    },
    {
        "no": 6449,
        "region": "인천광역시 ",
        "name": "용현5동분회 경로당",
        "operation": "운영",
        "addrnew": "인천광역시 미추홀구 매소홀로53번길 25-18 ",
        "addr": "인천광역시 미추홀구 용현동 630-15",
        "type": "노인시설",
        "size": "132.00",
        "capability": "16",
        "lat": "37.4516002",
        "lng": "126.6326315",
        "serialno": "28177020",
        "year": "2023",
        "loccode": "2817059000"
    },
    {
        "no": 6450,
        "region": "인천광역시 ",
        "name": "용현5동 주민센터",
        "operation": "운영",
        "addrnew": "인천광역시 미추홀구 토금북로 60",
        "addr": "인천광역시 미추홀구 용현동 611-6",
        "type": "주민센터",
        "size": "300.00",
        "capability": "36",
        "lat": "37.4525314",
        "lng": "126.6402092",
        "serialno": "28177021",
        "year": "2023",
        "loccode": "2817059000"
    },
    {
        "no": 6451,
        "region": "인천광역시 ",
        "name": "학익1동분회 경로당",
        "operation": "운영",
        "addrnew": "인천광역시 미추홀구 매소홀로386번길 32",
        "addr": "인천광역시 미추홀구 학익동 688-7",
        "type": "노인시설",
        "size": "98.00",
        "capability": "12",
        "lat": "37.4386302",
        "lng": "126.6645303",
        "serialno": "28177022",
        "year": "2023",
        "loccode": "2817060000"
    },
    {
        "no": 6452,
        "region": "인천광역시 ",
        "name": "학삼경로당",
        "operation": "운영",
        "addrnew": "인천광역시 미추홀구 소성로256번길 10-22 ",
        "addr": "인천광역시 미추홀구 학익동 669-9",
        "type": "노인시설",
        "size": "168.00",
        "capability": "20",
        "lat": "37.4378695",
        "lng": "126.6749535",
        "serialno": "28177023",
        "year": "2023",
        "loccode": "2817061000"
    },
    {
        "no": 6453,
        "region": "인천광역시 ",
        "name": "학익1동 행정복지센터",
        "operation": "운영",
        "addrnew": "인천광역시 미추홀구 매소홀로 380",
        "addr": "인천광역시 미추홀구 학익동 689-10",
        "type": "주민센터",
        "size": "48.00",
        "capability": "15",
        "lat": "37.4399223",
        "lng": "126.6641006",
        "serialno": "28177025",
        "year": "2023",
        "loccode": "2817758000"
    },
    {
        "no": 6454,
        "region": "인천광역시 ",
        "name": "하나은행 인천법조타운지점",
        "operation": "운영",
        "addrnew": "인천광역시 미추홀구 소성로 189",
        "addr": "인천광역시 미추홀구 학익동 239-2",
        "type": "금융기관",
        "size": "278.64",
        "capability": "20",
        "lat": "37.4411835",
        "lng": "126.6692303",
        "serialno": "2817700091",
        "year": "2023",
        "loccode": "2817759000"
    },
    {
        "no": 6455,
        "region": "인천광역시 ",
        "name": "신한은행 인천법원지점",
        "operation": "운영",
        "addrnew": "인천광역시 미추홀구 소성로163번길 17",
        "addr": "인천광역시 미추홀구 학익동 278-2",
        "type": "금융기관",
        "size": "224.19",
        "capability": "15",
        "lat": "37.4428498",
        "lng": "126.6674528",
        "serialno": "2817700086",
        "year": "2023",
        "loccode": "2817759000"
    },
    {
        "no": 6456,
        "region": "인천광역시 ",
        "name": "학익2동분회 경로당",
        "operation": "운영",
        "addrnew": "인천광역시 미추홀구 재넘이길9번길 36",
        "addr": "인천광역시 미추홀구 학익동 312-26",
        "type": "노인시설",
        "size": "100.00",
        "capability": "12",
        "lat": "37.4456997",
        "lng": "126.6653809",
        "serialno": "28177026",
        "year": "2023",
        "loccode": "2817061000"
    },
    {
        "no": 6457,
        "region": "인천광역시 ",
        "name": "학익2동 행정복지센터",
        "operation": "운영",
        "addrnew": "인천광역시 미추홀구 한나루로 444",
        "addr": "인천광역시 미추홀구 학익동 4-16",
        "type": "주민센터",
        "size": "623.00",
        "capability": "74",
        "lat": "37.4465791",
        "lng": "126.6674536",
        "serialno": "28177027",
        "year": "2023",
        "loccode": "2817061000"
    },
    {
        "no": 6458,
        "region": "인천광역시 ",
        "name": "도화1동분회 경로당",
        "operation": "운영",
        "addrnew": "인천광역시 미추홀구 수봉로171번길 35",
        "addr": "인천광역시 미추홀구 도화동 525-13",
        "type": "노인시설",
        "size": "241.00",
        "capability": "29",
        "lat": "37.4604105",
        "lng": "126.6690311",
        "serialno": "28177030",
        "year": "2023",
        "loccode": "2817063000"
    },
    {
        "no": 6459,
        "region": "인천광역시 ",
        "name": "봉동경로당",
        "operation": "운영",
        "addrnew": "인천광역시 미추홀구 수봉북로12번길 26",
        "addr": "인천광역시 미추홀구 도화동 634-141",
        "type": "노인시설",
        "size": "150.00",
        "capability": "18",
        "lat": "37.4649241",
        "lng": "126.6621443",
        "serialno": "28177031",
        "year": "2023",
        "loccode": "2817063000"
    },
    {
        "no": 6460,
        "region": "인천광역시 ",
        "name": "도곡경로당",
        "operation": "운영",
        "addrnew": "인천광역시 미추홀구 석바위로21번길 4",
        "addr": "인천광역시 미추홀구 도화동 369-13",
        "type": "노인시설",
        "size": "145.00",
        "capability": "17",
        "lat": "37.4610824",
        "lng": "126.6756002",
        "serialno": "28177032",
        "year": "2023",
        "loccode": "2817063000"
    },
    {
        "no": 6461,
        "region": "인천광역시 ",
        "name": "도화1동 행정복지센터",
        "operation": "운영",
        "addrnew": "인천광역시 미추홀구 경인로 295",
        "addr": "인천광역시 미추홀구 도화동 391-11",
        "type": "주민센터",
        "size": "48.00",
        "capability": "15",
        "lat": "37.4608794",
        "lng": "126.6738265",
        "serialno": "28177033",
        "year": "2023",
        "loccode": "2817760000"
    },
    {
        "no": 6462,
        "region": "인천광역시 ",
        "name": "제물포경로당",
        "operation": "운영",
        "addrnew": "인천광역시 미추홀구 석정로162번길 43",
        "addr": "인천광역시 미추홀구 도화동 80-79",
        "type": "노인시설",
        "size": "74.79",
        "capability": "50",
        "lat": "37.4674",
        "lng": "126.6555",
        "serialno": "2817700096",
        "year": "2023",
        "loccode": "2817761000"
    },
    {
        "no": 6463,
        "region": "인천광역시 ",
        "name": "도화오거리 경로당",
        "operation": "운영",
        "addrnew": "인천광역시 미추홀구 숙골로35번길 30",
        "addr": "인천광역시 미추홀구 도화동 98-19",
        "type": "노인시설",
        "size": "165.00",
        "capability": "20",
        "lat": "37.4667827",
        "lng": "126.6649381",
        "serialno": "28177034",
        "year": "2023",
        "loccode": "2817064000"
    },
    {
        "no": 6464,
        "region": "인천광역시 ",
        "name": "도화3동분회 경로당",
        "operation": "운영",
        "addrnew": "인천광역시 미추홀구 연송로 54",
        "addr": "인천광역시 미추홀구 도화동 16-40",
        "type": "노인시설",
        "size": "120.00",
        "capability": "14",
        "lat": "37.477535",
        "lng": "126.6559564",
        "serialno": "28177035",
        "year": "2023",
        "loccode": "2817065000"
    },
    {
        "no": 6465,
        "region": "인천광역시 ",
        "name": "도화2.3동 행정복지센터",
        "operation": "운영",
        "addrnew": "인천광역시 미추홀구 장고개로 29-1 ",
        "addr": "인천광역시 미추홀구 도화동 1011-1",
        "type": "주민센터",
        "size": "100.00",
        "capability": "30",
        "lat": "37.4709142",
        "lng": "126.666242",
        "serialno": "28177036",
        "year": "2023",
        "loccode": "2817761000"
    },
    {
        "no": 6466,
        "region": "인천광역시 ",
        "name": "농협은행 도화센트럴지점",
        "operation": "운영",
        "addrnew": "인천광역시 미추홀구 숙골로 100",
        "addr": "인천광역시 미추홀구 도화동 1006-4",
        "type": "금융기관",
        "size": "370.00",
        "capability": "15",
        "lat": "37.4710305",
        "lng": "126.6629447",
        "serialno": "28177037",
        "year": "2023",
        "loccode": "2817761000"
    },
    {
        "no": 6467,
        "region": "인천광역시 ",
        "name": "하나은행 인천지점",
        "operation": "운영",
        "addrnew": "인천광역시 미추홀구 미추홀대로 694",
        "addr": "인천광역시 미추홀구 주안동 186-1",
        "type": "금융기관",
        "size": "458.13",
        "capability": "20",
        "lat": "37.4591377",
        "lng": "126.680455",
        "serialno": "2817700090",
        "year": "2023",
        "loccode": "2817762000"
    },
    {
        "no": 6468,
        "region": "인천광역시 ",
        "name": "신한은행 인천금융센터지점",
        "operation": "운영",
        "addrnew": "인천광역시 미추홀구 경인로 391",
        "addr": "인천광역시 미추홀구 주안동 80-1",
        "type": "금융기관",
        "size": "837.87",
        "capability": "20",
        "lat": "37.4585478",
        "lng": "126.6835549",
        "serialno": "2817700089",
        "year": "2023",
        "loccode": "2817762000"
    },
    {
        "no": 6469,
        "region": "인천광역시 ",
        "name": "인정경로당",
        "operation": "운영",
        "addrnew": "인천광역시 미추홀구 주안중로38번길 13",
        "addr": "인천광역시 미추홀구 주안동 75-180",
        "type": "노인시설",
        "size": "104.00",
        "capability": "12",
        "lat": "37.4618374",
        "lng": "126.6835698",
        "serialno": "28177038",
        "year": "2023",
        "loccode": "2817066000"
    },
    {
        "no": 6470,
        "region": "인천광역시 ",
        "name": "농협은행 인천옹진군지부",
        "operation": "운영",
        "addrnew": "인천광역시 미추홀구 경인로 341",
        "addr": "인천광역시 미추홀구 주안동 195-1",
        "type": "금융기관",
        "size": "1,924.00",
        "capability": "30",
        "lat": "37.4589559",
        "lng": "126.678217",
        "serialno": "28177040",
        "year": "2023",
        "loccode": "2817762000"
    },
    {
        "no": 6471,
        "region": "인천광역시 ",
        "name": "주안1동 행정복지센터",
        "operation": "운영",
        "addrnew": "인천광역시 미추홀구 주안서로53번길 22",
        "addr": "인천광역시 미추홀구 주안동 266-1",
        "type": "주민센터",
        "size": "65.00",
        "capability": "20",
        "lat": "37.4637563",
        "lng": "126.6766083",
        "serialno": "28177041",
        "year": "2023",
        "loccode": "2817762000"
    },
    {
        "no": 6472,
        "region": "인천광역시 ",
        "name": "장수경로당",
        "operation": "운영",
        "addrnew": "인천광역시 미추홀구 한나루로550번길 25",
        "addr": "인천광역시 미추홀구 주안동 599-19",
        "type": "노인시설",
        "size": "149.00",
        "capability": "18",
        "lat": "37.4552667",
        "lng": "126.6713944",
        "serialno": "28177042",
        "year": "2023",
        "loccode": "2817067000"
    },
    {
        "no": 6473,
        "region": "인천광역시 ",
        "name": "주안2동 행정복지센터",
        "operation": "운영",
        "addrnew": "인천광역시 미추홀구 남주길43번길 14-29 ",
        "addr": "인천광역시 미추홀구 주안동 594-4",
        "type": "주민센터",
        "size": "60.00",
        "capability": "20",
        "lat": "37.4547099",
        "lng": "126.6727293",
        "serialno": "28177043",
        "year": "2023",
        "loccode": "2817763000"
    },
    {
        "no": 6474,
        "region": "인천광역시 ",
        "name": "남구노인복지관",
        "operation": "운영",
        "addrnew": "인천광역시 미추홀구 학익소로37번길 17",
        "addr": "인천광역시 미추홀구 주안동 866-67",
        "type": "복지회관",
        "size": "3,859.00",
        "capability": "459",
        "lat": "37.4450519",
        "lng": "126.671134",
        "serialno": "28177045",
        "year": "2023",
        "loccode": "2817068000"
    },
    {
        "no": 6475,
        "region": "인천광역시 ",
        "name": "주안3동 행정복지센터",
        "operation": "운영",
        "addrnew": "인천광역시 미추홀구 주승로31번길 28-10 ",
        "addr": "인천광역시 미추홀구 주안동 867-9",
        "type": "주민센터",
        "size": "30.00",
        "capability": "10",
        "lat": "37.4449304",
        "lng": "126.6739432",
        "serialno": "28177047",
        "year": "2023",
        "loccode": "2817764000"
    },
    {
        "no": 6476,
        "region": "인천광역시 ",
        "name": "경인경로당",
        "operation": "운영",
        "addrnew": "인천광역시 미추홀구 경인로380번길 53",
        "addr": "인천광역시 미추홀구 주안동 422-31",
        "type": "노인시설",
        "size": "100.00",
        "capability": "10",
        "lat": "37.4558838",
        "lng": "126.6822354",
        "serialno": "2817700095",
        "year": "2023",
        "loccode": "2817765000"
    },
    {
        "no": 6477,
        "region": "인천광역시 ",
        "name": "주안4동분회 경로당",
        "operation": "운영",
        "addrnew": "인천광역시 미추홀구 구월남로 38",
        "addr": "인천광역시 미추홀구 주안동 1578",
        "type": "노인시설",
        "size": "158.00",
        "capability": "19",
        "lat": "37.4542265",
        "lng": "126.6936446",
        "serialno": "28177048",
        "year": "2023",
        "loccode": "2817069000"
    },
    {
        "no": 6478,
        "region": "인천광역시 ",
        "name": "주안4동 행정복지센터",
        "operation": "운영",
        "addrnew": "인천광역시 미추홀구 구월남로 5",
        "addr": "인천광역시 미추홀구 주안동 1552-16",
        "type": "주민센터",
        "size": "65.00",
        "capability": "20",
        "lat": "37.4550137",
        "lng": "126.6903121",
        "serialno": "28177049",
        "year": "2023",
        "loccode": "2817765000"
    },
    {
        "no": 6479,
        "region": "인천광역시 ",
        "name": "농협은행 주안지점",
        "operation": "운영",
        "addrnew": "인천광역시 미추홀구 경원대로 768",
        "addr": "인천광역시 미추홀구 주안동 1560",
        "type": "금융기관",
        "size": "529.00",
        "capability": "20",
        "lat": "37.4512325",
        "lng": "126.6901352",
        "serialno": "28177050",
        "year": "2023",
        "loccode": "2817765000"
    },
    {
        "no": 6480,
        "region": "인천광역시 ",
        "name": "주안노인문화센터",
        "operation": "운영",
        "addrnew": "인천광역시 미추홀구 석정로 464",
        "addr": "인천광역시 미추홀구 주안동 20-35",
        "type": "기타",
        "size": "1,152.00",
        "capability": "137",
        "lat": "37.4658167",
        "lng": "126.6873272",
        "serialno": "28177051",
        "year": "2023",
        "loccode": "2817070000"
    },
    {
        "no": 6481,
        "region": "인천광역시 ",
        "name": "주안5동분회 경로당",
        "operation": "운영",
        "addrnew": "인천광역시 미추홀구 길파로35번길 34",
        "addr": "인천광역시 미추홀구 주안동 10-107",
        "type": "노인시설",
        "size": "110.00",
        "capability": "13",
        "lat": "37.4692942",
        "lng": "126.6778434",
        "serialno": "28177052",
        "year": "2023",
        "loccode": "2817070000"
    },
    {
        "no": 6482,
        "region": "인천광역시 ",
        "name": "주안5동 행정복지센터",
        "operation": "운영",
        "addrnew": "인천광역시 미추홀구 석정로 462",
        "addr": "인천광역시 미추홀구 주안동 20-1",
        "type": "주민센터",
        "size": "30.00",
        "capability": "10",
        "lat": "37.4659099",
        "lng": "126.6869334",
        "serialno": "28177053",
        "year": "2023",
        "loccode": "2817766000"
    },
    {
        "no": 6483,
        "region": "인천광역시 ",
        "name": "하나은행 주안지점",
        "operation": "운영",
        "addrnew": "인천광역시 미추홀구 경인로 463",
        "addr": "인천광역시 미추홀구 주안동 953-4",
        "type": "금융기관",
        "size": "780.16",
        "capability": "20",
        "lat": "37.4586982",
        "lng": "126.6913881",
        "serialno": "2817700092",
        "year": "2023",
        "loccode": "2817767000"
    },
    {
        "no": 6484,
        "region": "인천광역시 ",
        "name": "주안6동분회 경로당",
        "operation": "운영",
        "addrnew": "인천광역시 미추홀구 주안동로26번길 35",
        "addr": "인천광역시 미추홀구 주안동 992-5",
        "type": "노인시설",
        "size": "86.00",
        "capability": "10",
        "lat": "37.4604947",
        "lng": "126.6878695",
        "serialno": "28177054",
        "year": "2023",
        "loccode": "2817071000"
    },
    {
        "no": 6485,
        "region": "인천광역시 ",
        "name": "주안6동 행정복지센터",
        "operation": "운영",
        "addrnew": "인천광역시 미추홀구 경원대로864번길 59",
        "addr": "인천광역시 미추홀구 주안동 1616",
        "type": "주민센터",
        "size": "30.00",
        "capability": "10",
        "lat": "37.4610739",
        "lng": "126.6924827",
        "serialno": "28177055",
        "year": "2023",
        "loccode": "2817767000"
    },
    {
        "no": 6486,
        "region": "인천광역시 ",
        "name": "신한은행 주안남지점",
        "operation": "운영",
        "addrnew": "인천광역시 미추홀구 인하로 280",
        "addr": "인천광역시 미추홀구 주안동 1315-4",
        "type": "금융기관",
        "size": "444.92",
        "capability": "20",
        "lat": "37.4478576",
        "lng": "126.6790453",
        "serialno": "2817700087",
        "year": "2023",
        "loccode": "2817768000"
    },
    {
        "no": 6487,
        "region": "인천광역시 ",
        "name": "주안7동분회 경로당",
        "operation": "운영",
        "addrnew": "인천광역시 미추홀구 미추홀대로535번길 29",
        "addr": "인천광역시 미추홀구 주안동 1341-61",
        "type": "노인시설",
        "size": "123.00",
        "capability": "15",
        "lat": "37.4464259",
        "lng": "126.6779966",
        "serialno": "28177056",
        "year": "2023",
        "loccode": "2817072000"
    },
    {
        "no": 6488,
        "region": "인천광역시 ",
        "name": "주안7동 행정복지센터",
        "operation": "운영",
        "addrnew": "인천광역시 미추홀구 인하로 265",
        "addr": "인천광역시 미추홀구 주안동 1437-5",
        "type": "주민센터",
        "size": "30.00",
        "capability": "10",
        "lat": "37.4483934",
        "lng": "126.6776418",
        "serialno": "28177057",
        "year": "2023",
        "loccode": "2817768000"
    },
    {
        "no": 6489,
        "region": "인천광역시 ",
        "name": "주안8동분회 경로당",
        "operation": "운영",
        "addrnew": "인천광역시 미추홀구 인주대로446번길 27",
        "addr": "인천광역시 미추홀구 주안동 1519-16",
        "type": "노인시설",
        "size": "117.00",
        "capability": "14",
        "lat": "37.4495649",
        "lng": "126.6860419",
        "serialno": "28177059",
        "year": "2023",
        "loccode": "2817073000"
    },
    {
        "no": 6490,
        "region": "인천광역시 ",
        "name": "주안8동 행정복지센터",
        "operation": "운영",
        "addrnew": "인천광역시 미추홀구 인주대로470번길 24",
        "addr": "인천광역시 미추홀구 주안동 1530",
        "type": "주민센터",
        "size": "60.00",
        "capability": "20",
        "lat": "37.4496445",
        "lng": "126.6892677",
        "serialno": "28177061",
        "year": "2023",
        "loccode": "2817769000"
    },
    {
        "no": 6491,
        "region": "인천광역시 ",
        "name": "신한은행 인천터미널지점",
        "operation": "운영",
        "addrnew": "인천광역시 미추홀구 연남로 35",
        "addr": "인천광역시 미추홀구 관교동 15",
        "type": "금융기관",
        "size": "652.89",
        "capability": "15",
        "lat": "37.4424118",
        "lng": "126.7016518",
        "serialno": "2817700088",
        "year": "2023",
        "loccode": "2817770000"
    },
    {
        "no": 6492,
        "region": "인천광역시 ",
        "name": "관교동분회 경로당",
        "operation": "운영",
        "addrnew": "인천광역시 미추홀구 경원대로658번길 17",
        "addr": "인천광역시 미추홀구 관교동 490-7",
        "type": "노인시설",
        "size": "90.00",
        "capability": "11",
        "lat": "37.4425264",
        "lng": "126.6935026",
        "serialno": "28177062",
        "year": "2023",
        "loccode": "2817073500"
    },
    {
        "no": 6493,
        "region": "인천광역시 ",
        "name": "공적비경로당",
        "operation": "운영",
        "addrnew": "인천광역시 미추홀구 인하로411번길 13-3 ",
        "addr": "인천광역시 미추홀구 관교동 319-2",
        "type": "노인시설",
        "size": "117.00",
        "capability": "14",
        "lat": "37.4470127",
        "lng": "126.6937917",
        "serialno": "28177063",
        "year": "2023",
        "loccode": "2817073500"
    },
    {
        "no": 6494,
        "region": "인천광역시 ",
        "name": "관교동 행정복지센터",
        "operation": "운영",
        "addrnew": "인천광역시 미추홀구 인하로 452",
        "addr": "인천광역시 미추홀구 관교동 13-1",
        "type": "주민센터",
        "size": "60.00",
        "capability": "20",
        "lat": "37.4442539",
        "lng": "126.6968242",
        "serialno": "28177064",
        "year": "2023",
        "loccode": "2817770000"
    },
    {
        "no": 6495,
        "region": "인천광역시 ",
        "name": "문학동분회 경로당",
        "operation": "운영",
        "addrnew": "인천광역시 미추홀구 소성로 307",
        "addr": "인천광역시 미추홀구 문학동 367-3",
        "type": "노인시설",
        "size": "154.00",
        "capability": "18",
        "lat": "37.4378933",
        "lng": "126.6815224",
        "serialno": "28177066",
        "year": "2023",
        "loccode": "2817074000"
    },
    {
        "no": 6496,
        "region": "인천광역시 ",
        "name": "문학동 행정복지센터",
        "operation": "운영",
        "addrnew": "인천광역시 미추홀구 소성로 339",
        "addr": "인천광역시 미추홀구 문학동 385-6",
        "type": "주민센터",
        "size": "45.00",
        "capability": "15",
        "lat": "37.4376247",
        "lng": "126.6849423",
        "serialno": "28177067",
        "year": "2023",
        "loccode": "2817771000"
    },
    {
        "no": 6497,
        "region": "인천광역시 ",
        "name": "옥련1동  주민센터",
        "operation": "운영",
        "addrnew": "인천광역시 연수구 비류대로186번길 14",
        "addr": "인천광역시 연수구 옥련동 643-1",
        "type": "주민센터",
        "size": "340.00",
        "capability": "85",
        "lat": "37.42732",
        "lng": "126.655077",
        "serialno": "28185002",
        "year": "2023",
        "loccode": "2818563000"
    },
    {
        "no": 6498,
        "region": "인천광역시 ",
        "name": "새마을금고",
        "operation": "운영",
        "addrnew": "인천광역시 연수구 한나루로 181",
        "addr": "인천광역시 연수구 옥련동 336-11",
        "type": "금융기관",
        "size": "156.00",
        "capability": "39",
        "lat": "37.425709",
        "lng": "126.656009",
        "serialno": "28185003",
        "year": "2023",
        "loccode": "2818563000"
    },
    {
        "no": 6499,
        "region": "인천광역시 ",
        "name": "대암경로당",
        "operation": "운영",
        "addrnew": "인천광역시 연수구 대암로14번길 19",
        "addr": "인천광역시 연수구 옥련동 561-10",
        "type": "노인시설",
        "size": "278.00",
        "capability": "35",
        "lat": "37.4167914",
        "lng": "126.6524827",
        "serialno": "28185004",
        "year": "2023",
        "loccode": "2818563000"
    },
    {
        "no": 6500,
        "region": "인천광역시 ",
        "name": "옥련2동 주민센터",
        "operation": "운영",
        "addrnew": "인천광역시 연수구 옥련로 82",
        "addr": "인천광역시 연수구 옥련동 238",
        "type": "주민센터",
        "size": "505.00",
        "capability": "126",
        "lat": "37.426134",
        "lng": "126.64824",
        "serialno": "28185005",
        "year": "2023",
        "loccode": "2818564000"
    },
    {
        "no": 6501,
        "region": "인천광역시 ",
        "name": "현대2차 경로당",
        "operation": "운영",
        "addrnew": "인천광역시 연수구 독배로 58",
        "addr": "인천광역시 연수구 옥련동 633",
        "type": "노인시설",
        "size": "200.00",
        "capability": "50",
        "lat": "37.42587",
        "lng": "126.646426",
        "serialno": "28185006",
        "year": "2023",
        "loccode": "2818564000"
    },
    {
        "no": 6502,
        "region": "인천광역시 ",
        "name": "선학동 주민센터",
        "operation": "운영",
        "addrnew": "인천광역시 연수구 선학로 54",
        "addr": "인천광역시 연수구 선학동 341-1",
        "type": "주민센터",
        "size": "248.00",
        "capability": "62",
        "lat": "37.422367",
        "lng": "126.701282",
        "serialno": "28185007",
        "year": "2023",
        "loccode": "2818575000"
    },
    {
        "no": 6503,
        "region": "인천광역시 ",
        "name": "선학시영(아)경로당",
        "operation": "운영",
        "addrnew": "인천광역시 연수구 선학로 14",
        "addr": "인천광역시 연수구 선학동 347",
        "type": "노인시설",
        "size": "200.00",
        "capability": "50",
        "lat": "37.418763",
        "lng": "126.696373",
        "serialno": "28185008",
        "year": "2023",
        "loccode": "2818575000"
    },
    {
        "no": 6504,
        "region": "인천광역시 ",
        "name": "선학경로당",
        "operation": "운영",
        "addrnew": "인천광역시 연수구 선학로 100",
        "addr": "인천광역시 연수구 선학동 350",
        "type": "노인시설",
        "size": "137.00",
        "capability": "34",
        "lat": "37.426641",
        "lng": "126.699852",
        "serialno": "28185009",
        "year": "2023",
        "loccode": "2818575000"
    },
    {
        "no": 6505,
        "region": "인천광역시 ",
        "name": "남인천농협",
        "operation": "운영",
        "addrnew": "인천광역시 연수구 먼우금로 282",
        "addr": "인천광역시 연수구 연수동 576",
        "type": "금융기관",
        "size": "304.00",
        "capability": "76",
        "lat": "37.420619",
        "lng": "126.681688",
        "serialno": "28185010",
        "year": "2023",
        "loccode": "2818576100"
    },
    {
        "no": 6506,
        "region": "인천광역시 ",
        "name": "연수1동 주민센터",
        "operation": "운영",
        "addrnew": "인천광역시 연수구 함박뫼로 127",
        "addr": "인천광역시 연수구 연수동 535-3",
        "type": "주민센터",
        "size": "330.00",
        "capability": "82",
        "lat": "37.4222089",
        "lng": "126.6810763",
        "serialno": "28185011",
        "year": "2023",
        "loccode": "2818576100"
    },
    {
        "no": 6507,
        "region": "인천광역시 ",
        "name": "연수경로당",
        "operation": "운영",
        "addrnew": "인천광역시 연수구 함박뫼로84번길 29",
        "addr": "인천광역시 연수구 연수동 541-2",
        "type": "노인시설",
        "size": "206.00",
        "capability": "51",
        "lat": "37.421964",
        "lng": "126.677112",
        "serialno": "28185012",
        "year": "2023",
        "loccode": "2818576100"
    },
    {
        "no": 6508,
        "region": "인천광역시 ",
        "name": "하나은행 연수점",
        "operation": "운영",
        "addrnew": "인천광역시 연수구 청능대로 109",
        "addr": "인천광역시 연수구 연수동 599-5",
        "type": "금융기관",
        "size": "150.00",
        "capability": "15",
        "lat": "37.4130584",
        "lng": "126.6766745",
        "serialno": "2818500064",
        "year": "2023",
        "loccode": "2818576200"
    },
    {
        "no": 6509,
        "region": "인천광역시 ",
        "name": "신한은행 연수동점",
        "operation": "미운영",
        "addrnew": "인천광역시 연수구 청능대로 103",
        "addr": "인천광역시 연수구 연수동 599",
        "type": "금융기관",
        "size": "150.00",
        "capability": "30",
        "lat": "37.4137572",
        "lng": "126.6762288",
        "serialno": "2818500063",
        "year": "2023",
        "loccode": "2818576200"
    },
    {
        "no": 6510,
        "region": "인천광역시 ",
        "name": "샘말경로당",
        "operation": "운영",
        "addrnew": "인천광역시 연수구 샘말로 68-5 ",
        "addr": "인천광역시 연수구 연수동 622",
        "type": "노인시설",
        "size": "323.00",
        "capability": "80",
        "lat": "37.414127",
        "lng": "126.680503",
        "serialno": "28185013",
        "year": "2023",
        "loccode": "2818576200"
    },
    {
        "no": 6511,
        "region": "인천광역시 ",
        "name": "우성2차 경로당",
        "operation": "운영",
        "addrnew": "인천광역시 연수구 원인재로 180",
        "addr": "인천광역시 연수구 연수동 634",
        "type": "노인시설",
        "size": "220.00",
        "capability": "55",
        "lat": "37.411799",
        "lng": "126.685051",
        "serialno": "28185014",
        "year": "2023",
        "loccode": "2818576200"
    },
    {
        "no": 6512,
        "region": "인천광역시 ",
        "name": "연수2동 주민센터",
        "operation": "운영",
        "addrnew": "인천광역시 연수구 원인재로 158",
        "addr": "인천광역시 연수구 연수동 634-4",
        "type": "주민센터",
        "size": "392.00",
        "capability": "98",
        "lat": "37.411601",
        "lng": "126.681813",
        "serialno": "28185015",
        "year": "2023",
        "loccode": "2818576200"
    },
    {
        "no": 6513,
        "region": "인천광역시 ",
        "name": "연수1차 영구임대(아) 경로당",
        "operation": "운영",
        "addrnew": "인천광역시 연수구 원인재로 212",
        "addr": "인천광역시 연수구 연수동 582-2",
        "type": "노인시설",
        "size": "210.00",
        "capability": "52",
        "lat": "37.4135709",
        "lng": "126.6876494",
        "serialno": "28185016",
        "year": "2023",
        "loccode": "2818576200"
    },
    {
        "no": 6514,
        "region": "인천광역시 ",
        "name": "대동아파트 경로당",
        "operation": "운영",
        "addrnew": "인천광역시 연수구 벚꽃로 172",
        "addr": "인천광역시 연수구 연수동 633",
        "type": "노인시설",
        "size": "219.00",
        "capability": "54",
        "lat": "37.4132523",
        "lng": "126.6836839",
        "serialno": "28185017",
        "year": "2023",
        "loccode": "2818576200"
    },
    {
        "no": 6515,
        "region": "인천광역시 ",
        "name": "연수1차 일반분양(아) 경로당",
        "operation": "운영",
        "addrnew": "인천광역시 연수구 원인재로 212",
        "addr": "인천광역시 연수구 연수동 582-2",
        "type": "노인시설",
        "size": "211.00",
        "capability": "52",
        "lat": "37.4135732",
        "lng": "126.6877109",
        "serialno": "28185018",
        "year": "2023",
        "loccode": "2818576200"
    },
    {
        "no": 6516,
        "region": "인천광역시 ",
        "name": "주공3차아파트 경로당",
        "operation": "운영",
        "addrnew": "인천광역시 연수구 새말로 154",
        "addr": "인천광역시 연수구 연수동 578-2",
        "type": "노인시설",
        "size": "79.00",
        "capability": "24",
        "lat": "37.415586",
        "lng": "126.685196",
        "serialno": "28185020",
        "year": "2023",
        "loccode": "2818576300"
    },
    {
        "no": 6517,
        "region": "인천광역시 ",
        "name": "연수3동 주민센터",
        "operation": "운영",
        "addrnew": "인천광역시 연수구 원인재로 283",
        "addr": "인천광역시 연수구 연수동 533-2",
        "type": "주민센터",
        "size": "358.00",
        "capability": "89",
        "lat": "37.419264",
        "lng": "126.691936",
        "serialno": "28185021",
        "year": "2023",
        "loccode": "2818576300"
    },
    {
        "no": 6518,
        "region": "인천광역시 ",
        "name": "세경아파트경로당",
        "operation": "운영",
        "addrnew": "인천광역시 연수구 새말로 134",
        "addr": "인천광역시 연수구 연수동 578-1",
        "type": "노인시설",
        "size": "240.00",
        "capability": "60",
        "lat": "37.416407",
        "lng": "126.682926",
        "serialno": "28185022",
        "year": "2023",
        "loccode": "2818576300"
    },
    {
        "no": 6519,
        "region": "인천광역시 ",
        "name": "주공1차(아) 경로당",
        "operation": "운영",
        "addrnew": "인천광역시 연수구 원인재로 315",
        "addr": "인천광역시 연수구 연수동 533",
        "type": "노인시설",
        "size": "201.00",
        "capability": "50",
        "lat": "37.420983",
        "lng": "126.691782",
        "serialno": "28185023",
        "year": "2023",
        "loccode": "2818576300"
    },
    {
        "no": 6520,
        "region": "인천광역시 ",
        "name": "노인문화센터",
        "operation": "운영",
        "addrnew": "인천광역시 연수구 청학로12번길 53",
        "addr": "인천광역시 연수구 청학동 539-3",
        "type": "노인시설",
        "size": "201.00",
        "capability": "50",
        "lat": "37.4276699",
        "lng": "126.6665392",
        "serialno": "28185024",
        "year": "2023",
        "loccode": "2818576600"
    },
    {
        "no": 6521,
        "region": "인천광역시 ",
        "name": "청학동 주민센터",
        "operation": "운영",
        "addrnew": "인천광역시 연수구 비류대로294번길 26",
        "addr": "인천광역시 연수구 청학동 568-10",
        "type": "주민센터",
        "size": "384.00",
        "capability": "96",
        "lat": "37.424949",
        "lng": "126.666078",
        "serialno": "28185025",
        "year": "2023",
        "loccode": "2818576600"
    },
    {
        "no": 6522,
        "region": "인천광역시 ",
        "name": "청담경로당",
        "operation": "운영",
        "addrnew": "인천광역시 연수구 용담로 61",
        "addr": "인천광역시 연수구 청학동 467",
        "type": "노인시설",
        "size": "133.00",
        "capability": "33",
        "lat": "37.418939",
        "lng": "126.674059",
        "serialno": "28185026",
        "year": "2023",
        "loccode": "2818576600"
    },
    {
        "no": 6523,
        "region": "인천광역시 ",
        "name": "청능마을경로당",
        "operation": "운영",
        "addrnew": "인천광역시 연수구 청능말로22번길 10",
        "addr": "인천광역시 연수구 청학동 459-11",
        "type": "노인시설",
        "size": "190.00",
        "capability": "47",
        "lat": "37.416922",
        "lng": "126.667836",
        "serialno": "28185027",
        "year": "2023",
        "loccode": "2818576600"
    },
    {
        "no": 6524,
        "region": "인천광역시 ",
        "name": "청학골 경로당",
        "operation": "운영",
        "addrnew": "인천광역시 연수구 솔샘로 101",
        "addr": "인천광역시 연수구 청학동 114-5",
        "type": "노인시설",
        "size": "137.00",
        "capability": "34",
        "lat": "37.425353",
        "lng": "126.663201",
        "serialno": "28185028",
        "year": "2023",
        "loccode": "2818576600"
    },
    {
        "no": 6525,
        "region": "인천광역시 ",
        "name": "용담마을 경로당",
        "operation": "운영",
        "addrnew": "인천광역시 연수구 용담로 25",
        "addr": "인천광역시 연수구 청학동 454",
        "type": "노인시설",
        "size": "69.00",
        "capability": "17",
        "lat": "37.421134",
        "lng": "126.671137",
        "serialno": "28185029",
        "year": "2023",
        "loccode": "2818576600"
    },
    {
        "no": 6526,
        "region": "인천광역시 ",
        "name": "농협 연수지점",
        "operation": "운영",
        "addrnew": "인천광역시 연수구 먼우금로221번길 13",
        "addr": "인천광역시 연수구 청학동 498-2",
        "type": "금융기관",
        "size": "2,086.00",
        "capability": "30",
        "lat": "37.417384",
        "lng": "126.6767412",
        "serialno": "28185030",
        "year": "2023",
        "loccode": "2818576600"
    },
    {
        "no": 6527,
        "region": "인천광역시 ",
        "name": "동춘1동 주민센터",
        "operation": "운영",
        "addrnew": "인천광역시 연수구 먼우금로 117",
        "addr": "인천광역시 연수구 동춘동 921-2",
        "type": "주민센터",
        "size": "365.00",
        "capability": "91",
        "lat": "37.40954",
        "lng": "126.670757",
        "serialno": "28185031",
        "year": "2023",
        "loccode": "2818578000"
    },
    {
        "no": 6528,
        "region": "인천광역시 ",
        "name": "동춘마을(아) 경로당",
        "operation": "운영",
        "addrnew": "인천광역시 연수구 먼우금로 123",
        "addr": "인천광역시 연수구 동춘동 921",
        "type": "노인시설",
        "size": "119.00",
        "capability": "30",
        "lat": "37.411128",
        "lng": "126.670152",
        "serialno": "28185032",
        "year": "2023",
        "loccode": "2818578000"
    },
    {
        "no": 6529,
        "region": "인천광역시 ",
        "name": "현대1차 아파트 경로당",
        "operation": "운영",
        "addrnew": "인천광역시 연수구 원인재로 56",
        "addr": "인천광역시 연수구 동춘동 928",
        "type": "노인시설",
        "size": "180.00",
        "capability": "55",
        "lat": "37.4035182",
        "lng": "126.6764588",
        "serialno": "2818500059",
        "year": "2023",
        "loccode": "2818579000"
    },
    {
        "no": 6530,
        "region": "인천광역시 ",
        "name": "풍림2차 아파트 경로당",
        "operation": "운영",
        "addrnew": "인천광역시 연수구 경원대로119번길 21",
        "addr": "인천광역시 연수구 동춘동 929",
        "type": "노인시설",
        "size": "187.00",
        "capability": "56",
        "lat": "37.4006079",
        "lng": "126.6736121",
        "serialno": "2818500058",
        "year": "2023",
        "loccode": "2818579000"
    },
    {
        "no": 6531,
        "region": "인천광역시 ",
        "name": "동춘2동 주민센터",
        "operation": "운영",
        "addrnew": "인천광역시 연수구 먼우금로 41",
        "addr": "인천광역시 연수구 동춘동 943-3",
        "type": "주민센터",
        "size": "422.00",
        "capability": "105",
        "lat": "37.402694",
        "lng": "126.669296",
        "serialno": "28185033",
        "year": "2023",
        "loccode": "2818579000"
    },
    {
        "no": 6532,
        "region": "인천광역시 ",
        "name": "동남아파트경로당",
        "operation": "운영",
        "addrnew": "인천광역시 연수구 먼우금로 19",
        "addr": "인천광역시 연수구 동춘동 943",
        "type": "노인시설",
        "size": "274.00",
        "capability": "68",
        "lat": "37.401139",
        "lng": "126.668059",
        "serialno": "28185034",
        "year": "2023",
        "loccode": "2818579000"
    },
    {
        "no": 6533,
        "region": "인천광역시 ",
        "name": "대동경로당",
        "operation": "운영",
        "addrnew": "인천광역시 연수구 먼우금로 69",
        "addr": "인천광역시 연수구 동춘동 941",
        "type": "노인시설",
        "size": "133.00",
        "capability": "33",
        "lat": "37.405673",
        "lng": "126.669029",
        "serialno": "28185035",
        "year": "2023",
        "loccode": "2818579000"
    },
    {
        "no": 6534,
        "region": "인천광역시 ",
        "name": "무지개마을(아) 경로당",
        "operation": "운영",
        "addrnew": "인천광역시 연수구 원인재로 14",
        "addr": "인천광역시 연수구 동춘동 931",
        "type": "노인시설",
        "size": "167.00",
        "capability": "41",
        "lat": "37.4017065",
        "lng": "126.6718373",
        "serialno": "28185036",
        "year": "2023",
        "loccode": "2818579000"
    },
    {
        "no": 6535,
        "region": "인천광역시 ",
        "name": "농협 동춘동지점",
        "operation": "운영",
        "addrnew": "인천광역시 연수구 먼우금로 92",
        "addr": "인천광역시 연수구 동춘동 937-9",
        "type": "금융기관",
        "size": "608.00",
        "capability": "20",
        "lat": "37.4069957",
        "lng": "126.6704092",
        "serialno": "28185037",
        "year": "2023",
        "loccode": "2818579000"
    },
    {
        "no": 6536,
        "region": "인천광역시 ",
        "name": "신한은행 연수구청점",
        "operation": "운영",
        "addrnew": "인천광역시 연수구 원인재로 115",
        "addr": "인천광역시 연수구 동춘동 923-5",
        "type": "금융기관",
        "size": "223.00",
        "capability": "25",
        "lat": "37.4101444",
        "lng": "126.6781556",
        "serialno": "2818500065",
        "year": "2023",
        "loccode": "2818579500"
    },
    {
        "no": 6537,
        "region": "인천광역시 ",
        "name": "럭키삼성(아)경로당",
        "operation": "운영",
        "addrnew": "인천광역시 연수구 원인재로 81",
        "addr": "인천광역시 연수구 동춘동 924-3",
        "type": "노인시설",
        "size": "144.00",
        "capability": "36",
        "lat": "37.407252",
        "lng": "126.675643",
        "serialno": "28185038",
        "year": "2023",
        "loccode": "2818579500"
    },
    {
        "no": 6538,
        "region": "인천광역시 ",
        "name": "동춘3동주민센터",
        "operation": "운영",
        "addrnew": "인천광역시 연수구 원인재로 110",
        "addr": "인천광역시 연수구 동춘동 925-2",
        "type": "주민센터",
        "size": "348.00",
        "capability": "87",
        "lat": "37.40849",
        "lng": "126.6782775",
        "serialno": "28185039",
        "year": "2023",
        "loccode": "2818579500"
    },
    {
        "no": 6539,
        "region": "인천광역시 ",
        "name": "NH농협은행 송도금융센터",
        "operation": "운영",
        "addrnew": "인천광역시 연수구 하모니로177번길 49",
        "addr": "인천광역시 연수구 송도동 11-2",
        "type": "금융기관",
        "size": "465.00",
        "capability": "20",
        "lat": "37.3783833",
        "lng": "126.6443096",
        "serialno": "2818500251",
        "year": "2023",
        "loccode": "2818582000"
    },
    {
        "no": 6540,
        "region": "인천광역시 ",
        "name": "하나은행 송도금융센터지점",
        "operation": "운영",
        "addrnew": "인천광역시 연수구 해돋이로120번길 23",
        "addr": "인천광역시 연수구 송도동 3-7",
        "type": "금융기관",
        "size": "130.00",
        "capability": "21",
        "lat": "37.394199",
        "lng": "126.6506273",
        "serialno": "2818500071",
        "year": "2023",
        "loccode": "2818582000"
    },
    {
        "no": 6541,
        "region": "인천광역시 ",
        "name": "신한은행 송도금융센터지점",
        "operation": "운영",
        "addrnew": "인천광역시 연수구 인천타워대로54번길 3",
        "addr": "인천광역시 연수구 송도동 9-26",
        "type": "금융기관",
        "size": "250.00",
        "capability": "35",
        "lat": "37.378614",
        "lng": "126.6456676",
        "serialno": "2818500068",
        "year": "2023",
        "loccode": "2818582000"
    },
    {
        "no": 6542,
        "region": "인천광역시 ",
        "name": "신한은행 송도국제도시지점",
        "operation": "운영",
        "addrnew": "인천광역시 연수구 신송로 121",
        "addr": "인천광역시 연수구 송도동 3-4",
        "type": "금융기관",
        "size": "200.00",
        "capability": "30",
        "lat": "37.3954216",
        "lng": "126.6517487",
        "serialno": "2818500067",
        "year": "2023",
        "loccode": "2818582000"
    },
    {
        "no": 6543,
        "region": "인천광역시 ",
        "name": "송도1동 주민센터",
        "operation": "운영",
        "addrnew": "인천광역시 연수구 하모니로35번길 8",
        "addr": "인천광역시 연수구 송도동 3-33",
        "type": "주민센터",
        "size": "364.00",
        "capability": "91",
        "lat": "37.390974",
        "lng": "126.652045",
        "serialno": "28185041",
        "year": "2023",
        "loccode": "2818582000"
    },
    {
        "no": 6544,
        "region": "인천광역시 ",
        "name": "풍림아이원경로당",
        "operation": "운영",
        "addrnew": "인천광역시 연수구 해돋이로84번길 29",
        "addr": "인천광역시 연수구 송도동 3-13",
        "type": "노인시설",
        "size": "108.00",
        "capability": "27",
        "lat": "37.391978",
        "lng": "126.653224",
        "serialno": "28185042",
        "year": "2023",
        "loccode": "2818582000"
    },
    {
        "no": 6545,
        "region": "인천광역시 ",
        "name": "송도더?퍼스트월드 경로당",
        "operation": "운영",
        "addrnew": "인천광역시 연수구 해돋이로 107",
        "addr": "인천광역시 연수구 송도동 4-1",
        "type": "노인시설",
        "size": "208.00",
        "capability": "52",
        "lat": "37.39095",
        "lng": "126.648375",
        "serialno": "28185043",
        "year": "2023",
        "loccode": "2818582000"
    },
    {
        "no": 6546,
        "region": "인천광역시 ",
        "name": "농협 송도시티지점",
        "operation": "운영",
        "addrnew": "인천광역시 연수구 해돋이로 107",
        "addr": "인천광역시 연수구 송도동 4-1",
        "type": "금융기관",
        "size": "351.00",
        "capability": "15",
        "lat": "37.3915776",
        "lng": "126.649458",
        "serialno": "28185044",
        "year": "2023",
        "loccode": "2818582000"
    },
    {
        "no": 6547,
        "region": "인천광역시 ",
        "name": "수협 송도국제도시지점",
        "operation": "운영",
        "addrnew": "인천광역시 연수구 해돋이로120번길 16",
        "addr": "인천광역시 연수구 송도동 3-10",
        "type": "금융기관",
        "size": "425.00",
        "capability": "20",
        "lat": "37.3949742",
        "lng": "126.6524837",
        "serialno": "28185046",
        "year": "2023",
        "loccode": "2818582000"
    },
    {
        "no": 6548,
        "region": "인천광역시 ",
        "name": "농협 송도웨스턴파크지점",
        "operation": "운영",
        "addrnew": "인천광역시 연수구 아트센터대로168번길 100",
        "addr": "인천광역시 연수구 송도동 29-1",
        "type": "금융기관",
        "size": "396.00",
        "capability": "15",
        "lat": "37.4058254",
        "lng": "126.6291868",
        "serialno": "2818500252",
        "year": "2023",
        "loccode": "2818583000"
    },
    {
        "no": 6549,
        "region": "인천광역시 ",
        "name": "하나은행 송도 GCF지점",
        "operation": "운영",
        "addrnew": "인천광역시 연수구 아트센터대로 175",
        "addr": "인천광역시 연수구 송도동 24-4",
        "type": "금융기관",
        "size": "125.00",
        "capability": "20",
        "lat": "37.3964684",
        "lng": "126.633998",
        "serialno": "2818500070",
        "year": "2023",
        "loccode": "2818583000"
    },
    {
        "no": 6550,
        "region": "인천광역시 ",
        "name": "신한은행 경제자유구역청지점",
        "operation": "운영",
        "addrnew": "인천광역시 연수구 아트센터대로 175",
        "addr": "인천광역시 연수구 송도동 24-4",
        "type": "금융기관",
        "size": "150.00",
        "capability": "25",
        "lat": "37.3960286",
        "lng": "126.6336715",
        "serialno": "2818500069",
        "year": "2023",
        "loccode": "2818583000"
    },
    {
        "no": 6551,
        "region": "인천광역시 ",
        "name": "송도2동 주민센터",
        "operation": "운영",
        "addrnew": "인천광역시 연수구 신송로 248",
        "addr": "인천광역시 연수구 송도동 16-3",
        "type": "주민센터",
        "size": "208.00",
        "capability": "52",
        "lat": "37.40328",
        "lng": "126.641648",
        "serialno": "28185048",
        "year": "2023",
        "loccode": "2818583000"
    },
    {
        "no": 6552,
        "region": "인천광역시 ",
        "name": "농협 송도 GCF지점",
        "operation": "운영",
        "addrnew": "인천광역시 연수구 아트센터대로 175",
        "addr": "인천광역시 연수구 송도동 24-4",
        "type": "금융기관",
        "size": "198.00",
        "capability": "10",
        "lat": "37.3962537",
        "lng": "126.634371",
        "serialno": "28185049",
        "year": "2023",
        "loccode": "2818583000"
    },
    {
        "no": 6553,
        "region": "인천광역시 ",
        "name": "송도3동 주민센터",
        "operation": "운영",
        "addrnew": "인천광역시 연수구 송도교육로 61",
        "addr": "인천광역시 연수구 송도동 194-2",
        "type": "주민센터",
        "size": "308.00",
        "capability": "77",
        "lat": "37.3715711",
        "lng": "126.6598723",
        "serialno": "28185051",
        "year": "2023",
        "loccode": "2818584000"
    },
    {
        "no": 6554,
        "region": "인천광역시 ",
        "name": "농협 송도캠퍼스타운지점",
        "operation": "운영",
        "addrnew": "인천광역시 연수구 송도과학로27번길 55",
        "addr": "인천광역시 연수구 송도동 149",
        "type": "금융기관",
        "size": "291.00",
        "capability": "15",
        "lat": "37.3869063",
        "lng": "126.6645337",
        "serialno": "28185052",
        "year": "2023",
        "loccode": "2818584000"
    },
    {
        "no": 6555,
        "region": "인천광역시 ",
        "name": "송도4동 행정복지센터",
        "operation": "운영",
        "addrnew": "인천광역시 연수구 컨벤시아대로252번길 79",
        "addr": "인천광역시 연수구 송도동 104-2",
        "type": "주민센터",
        "size": "375.00",
        "capability": "114",
        "lat": "37.3881805",
        "lng": "126.6298173",
        "serialno": "28185053",
        "year": "2023",
        "loccode": "2818585000"
    },
    {
        "no": 6556,
        "region": "인천광역시 ",
        "name": "송도5동 행정복지센터",
        "operation": "운영",
        "addrnew": "인천광역시 연수구 인천타워대로 501",
        "addr": "인천광역시 연수구 송도동 317",
        "type": "주민센터",
        "size": "486.00",
        "capability": "5",
        "lat": "37.4139382",
        "lng": "126.6225521",
        "serialno": "2818500057",
        "year": "2023",
        "loccode": "2818586000"
    },
    {
        "no": 6557,
        "region": "인천광역시 ",
        "name": "신한은행 인천영업부금융센터",
        "operation": "운영",
        "addrnew": "인천광역시 남동구 남동대로 776",
        "addr": "인천광역시 남동구 구월동 1199-13",
        "type": "금융기관",
        "size": "650.00",
        "capability": "20",
        "lat": "37.4516244",
        "lng": "126.7083145",
        "serialno": "2820000230",
        "year": "2023",
        "loccode": "2820051000"
    },
    {
        "no": 6558,
        "region": "인천광역시 ",
        "name": "동아A 경로당",
        "operation": "운영",
        "addrnew": "인천광역시 남동구  인주대로676번길  22 , 경로당 (구월동, 동아아파트)",
        "addr": "인천광역시 남동구 구월동 260-5 동아아파트 경로당",
        "type": "노인시설",
        "size": "83.00",
        "capability": "20",
        "lat": "37.448127",
        "lng": "126.711193",
        "serialno": "28200002",
        "year": "2023",
        "loccode": "2820051000"
    },
    {
        "no": 6559,
        "region": "인천광역시 ",
        "name": "팬더A 경로당",
        "operation": "운영",
        "addrnew": "인천광역시 남동구  인주대로662번길  32   (구월동, 팬더아파트)",
        "addr": "인천광역시 남동구 구월동 258 팬더아파트",
        "type": "노인시설",
        "size": "135.53",
        "capability": "30",
        "lat": "37.51081",
        "lng": "126.730322",
        "serialno": "28200003",
        "year": "2023",
        "loccode": "2820051000"
    },
    {
        "no": 6560,
        "region": "인천광역시 ",
        "name": "대구월경로당",
        "operation": "운영",
        "addrnew": "인천광역시 남동구  용천로4번길  63-6  (구월동)",
        "addr": "인천광역시 남동구 구월동 1236-7",
        "type": "노인시설",
        "size": "201.00",
        "capability": "50",
        "lat": "37.449868",
        "lng": "126.717944",
        "serialno": "28200004",
        "year": "2023",
        "loccode": "2820051000"
    },
    {
        "no": 6561,
        "region": "인천광역시 ",
        "name": "동남아파트경로당",
        "operation": "운영",
        "addrnew": "인천광역시 남동구  인주대로676번길  19   (구월동, 동남아파트)",
        "addr": "인천광역시 남동구 구월동 287 동남아파트",
        "type": "노인시설",
        "size": "83.00",
        "capability": "25",
        "lat": "37.623272",
        "lng": "126.719883",
        "serialno": "28200005",
        "year": "2023",
        "loccode": "2820051000"
    },
    {
        "no": 6562,
        "region": "인천광역시 ",
        "name": "구월아시아드선수촌 센트럴자이아파트 경로당",
        "operation": "운영",
        "addrnew": "인천광역시 남동구 선수촌로 55",
        "addr": "인천광역시 남동구 구월동 1510",
        "type": "노인시설",
        "size": "179.00",
        "capability": "20",
        "lat": "37.444218",
        "lng": "126.713246",
        "serialno": "28200006",
        "year": "2023",
        "loccode": "2820051000"
    },
    {
        "no": 6563,
        "region": "인천광역시 ",
        "name": "구월아시아드선수촌 1단지아파트 경로당",
        "operation": "운영",
        "addrnew": "인천광역시 남동구 선수촌공원로 85",
        "addr": "인천광역시 남동구 구월동 1486",
        "type": "노인시설",
        "size": "131.00",
        "capability": "26",
        "lat": "37.44445",
        "lng": "126.709686",
        "serialno": "28200007",
        "year": "2023",
        "loccode": "2820051000"
    },
    {
        "no": 6564,
        "region": "인천광역시 ",
        "name": "구월아시아드선수촌 2단지아파트 경로당",
        "operation": "운영",
        "addrnew": "인천광역시 남동구 선수촌공원로 96",
        "addr": "인천광역시 남동구 구월동 1485",
        "type": "노인시설",
        "size": "134.00",
        "capability": "30",
        "lat": "37.447681",
        "lng": "126.714057",
        "serialno": "28200008",
        "year": "2023",
        "loccode": "2820051000"
    },
    {
        "no": 6565,
        "region": "인천광역시 ",
        "name": "구월아시아드선수촌 6단지아파트 경로당",
        "operation": "운영",
        "addrnew": "인천광역시 남동구 선수촌로 27",
        "addr": "인천광역시 남동구 구월동 1524",
        "type": "노인시설",
        "size": "117.00",
        "capability": "33",
        "lat": "37.441666",
        "lng": "126.714103",
        "serialno": "28200009",
        "year": "2023",
        "loccode": "2820051000"
    },
    {
        "no": 6566,
        "region": "인천광역시 ",
        "name": "구월아시아드선수촌8단지",
        "operation": "운영",
        "addrnew": "인천광역시 남동구 선수촌로 8",
        "addr": "인천광역시 남동구 구월동 1554",
        "type": "노인시설",
        "size": "157.00",
        "capability": "40",
        "lat": "37.440142",
        "lng": "126.71569",
        "serialno": "28200010",
        "year": "2023",
        "loccode": "2820051000"
    },
    {
        "no": 6567,
        "region": "인천광역시 ",
        "name": "구월아시아드선수촌 5단지 경로당",
        "operation": "운영",
        "addrnew": "인천광역시 남동구 선수촌로 56",
        "addr": "인천광역시 남동구 구월동 1513",
        "type": "노인시설",
        "size": "162.00",
        "capability": "50",
        "lat": "37.444044",
        "lng": "126.715419",
        "serialno": "28200011",
        "year": "2023",
        "loccode": "2820051000"
    },
    {
        "no": 6568,
        "region": "인천광역시 ",
        "name": "구월유승한내들퍼스티지 경로당",
        "operation": "운영",
        "addrnew": "인천광역시 남동구 선수촌로 75",
        "addr": "인천광역시 남동구 구월동 1508",
        "type": "노인시설",
        "size": "122.00",
        "capability": "35",
        "lat": "37.445497",
        "lng": "126.717172",
        "serialno": "28200012",
        "year": "2023",
        "loccode": "2820010100"
    },
    {
        "no": 6569,
        "region": "인천광역시 ",
        "name": "구월1동행정복지센터",
        "operation": "운영",
        "addrnew": "인천광역시 남동구 선수촌공원로 104",
        "addr": "인천광역시 남동구 구월동 1484",
        "type": "주민센터",
        "size": "985.11",
        "capability": "30",
        "lat": "37.447659",
        "lng": "126.712606",
        "serialno": "28200013",
        "year": "2023",
        "loccode": "2820051000"
    },
    {
        "no": 6570,
        "region": "인천광역시 ",
        "name": "NH농협은행 구월지점",
        "operation": "운영",
        "addrnew": "인천광역시 남동구 용천로 87",
        "addr": "인천광역시 남동구 구월동 70-14",
        "type": "금융기관",
        "size": "709.00",
        "capability": "78",
        "lat": "37.45747",
        "lng": "126.7145071",
        "serialno": "2820000256",
        "year": "2023",
        "loccode": "2820052000"
    },
    {
        "no": 6571,
        "region": "인천광역시 ",
        "name": "힐스테이트3단지경로당",
        "operation": "운영",
        "addrnew": "인천광역시 남동구  용천로87번길  23   (구월동, 구월 힐스테이트)",
        "addr": "인천광역시 남동구 구월동 20 구월 힐스테이트",
        "type": "노인시설",
        "size": "154.00",
        "capability": "21",
        "lat": "37.456799",
        "lng": "126.713131",
        "serialno": "28200015",
        "year": "2023",
        "loccode": "2820052000"
    },
    {
        "no": 6572,
        "region": "인천광역시 ",
        "name": "신세계A 경로당",
        "operation": "운영",
        "addrnew": "인천광역시 남동구  호구포로  858 , 신세계A 경로당 (구월동, 신세계아파트)",
        "addr": "인천광역시 남동구 구월동 342-1 신세계아파트 신세계A 경로당",
        "type": "노인시설",
        "size": "99.17",
        "capability": "20",
        "lat": "37.4578",
        "lng": "126.720675",
        "serialno": "28200016",
        "year": "2023",
        "loccode": "2820052000"
    },
    {
        "no": 6573,
        "region": "인천광역시 ",
        "name": "롯데캐슬 2단지 경로당",
        "operation": "운영",
        "addrnew": "인천광역시 남동구  호구포로  803   (구월동, 롯데캐슬골드)",
        "addr": "인천광역시 남동구 구월동 24 롯데캐슬골드",
        "type": "노인시설",
        "size": "651.03",
        "capability": "10",
        "lat": "37.453822",
        "lng": "126.716889",
        "serialno": "28200017",
        "year": "2023",
        "loccode": "2820052000"
    },
    {
        "no": 6574,
        "region": "인천광역시 ",
        "name": "두드림A 경로당",
        "operation": "운영",
        "addrnew": "인천광역시 남동구  용천로98번길  24   (구월동, 두드림아파트)",
        "addr": "인천광역시 남동구 구월동 6-3 두드림아파트",
        "type": "노인시설",
        "size": "28.80",
        "capability": "5",
        "lat": "37.45803",
        "lng": "126.716082",
        "serialno": "28200018",
        "year": "2023",
        "loccode": "2820052000"
    },
    {
        "no": 6575,
        "region": "인천광역시 ",
        "name": "구월2동 경로당",
        "operation": "운영",
        "addrnew": "인천광역시 남동구  구월로  251   (구월동)",
        "addr": "인천광역시 남동구 구월동 1246",
        "type": "노인시설",
        "size": "651.00",
        "capability": "60",
        "lat": "37.457112",
        "lng": "126.718709",
        "serialno": "28200019",
        "year": "2023",
        "loccode": "2820052000"
    },
    {
        "no": 6576,
        "region": "인천광역시 ",
        "name": "힐스테이트롯데캐슬경로당",
        "operation": "운영",
        "addrnew": "인천광역시 남동구  구월로  208   (구월동)",
        "addr": "인천광역시 남동구 구월동 23-1",
        "type": "노인시설",
        "size": "651.00",
        "capability": "60",
        "lat": "37.456081",
        "lng": "126.713335",
        "serialno": "28200020",
        "year": "2023",
        "loccode": "2820052000"
    },
    {
        "no": 6577,
        "region": "인천광역시 ",
        "name": "구월2동행정복지센터",
        "operation": "운영",
        "addrnew": "인천광역시 남동구 구월로 208",
        "addr": "인천광역시 남동구 구월동 23-1",
        "type": "주민센터",
        "size": "1,738.00",
        "capability": "50",
        "lat": "37.4561522",
        "lng": "126.7133798",
        "serialno": "28200021",
        "year": "2023",
        "loccode": "2820052000"
    },
    {
        "no": 6578,
        "region": "인천광역시 ",
        "name": "NH농협은행 인천영업부",
        "operation": "운영",
        "addrnew": "인천광역시 남동구 남동대로765번길 36",
        "addr": "인천광역시 남동구 구월동 1143-35",
        "type": "금융기관",
        "size": "651.00",
        "capability": "72",
        "lat": "37.4511864",
        "lng": "126.7057423",
        "serialno": "2820000253",
        "year": "2023",
        "loccode": "2820052100"
    },
    {
        "no": 6579,
        "region": "인천광역시 ",
        "name": "NH농협은행 인천지점",
        "operation": "운영",
        "addrnew": "인천광역시 남동구 예술로 126",
        "addr": "인천광역시 남동구 구월동 1464",
        "type": "금융기관",
        "size": "405.00",
        "capability": "45",
        "lat": "37.4451294",
        "lng": "126.7008726",
        "serialno": "2820000250",
        "year": "2023",
        "loccode": "2820052100"
    },
    {
        "no": 6580,
        "region": "인천광역시 ",
        "name": "신한은행 인천광역시청",
        "operation": "운영",
        "addrnew": "인천광역시 남동구 정각로 29",
        "addr": "인천광역시 남동구 구월동 1138",
        "type": "금융기관",
        "size": "650.00",
        "capability": "30",
        "lat": "37.4556901",
        "lng": "126.7058177",
        "serialno": "2820000237",
        "year": "2023",
        "loccode": "2820052100"
    },